{"key":"1502324","name":"Abasolo","type":"city","country_code":"MX","country_name":"Mexico","region":"Tamaulipas","region_id":2532,"supports_region":true,"supports_city":true,"lat":24.0592842,"lng":-98.377212,"googleName":"Abasolo, Tamps., Mexico","googleId":"ChIJN22fdqwpeoYRTyB4LOFmxDQ","types":["administrative_area_level_2","political"]}
{"key":"1502323","name":"Abasolo","type":"city","country_code":"MX","country_name":"Mexico","region":"Tabasco","region_id":2531,"supports_region":true,"supports_city":true,"lat":17.6611111,"lng":-92.5694444,"googleName":"Abasolo, Tab., Mexico","googleId":"ChIJvdyrlkqN7YURE2q7voZzISE","types":["locality","political"]}
{"key":"1502320","name":"Abasolo","type":"city","country_code":"MX","country_name":"Mexico","region":"Guanajuato","region_id":2515,"supports_region":true,"supports_city":true,"lat":20.452319,"lng":-101.5265017,"googleName":"Abasolo, Guanajuato, Mexico","googleId":"ChIJbSirAbplLIQRW1sqUF41UVs","types":["locality","political"]}
{"key":"1502317","name":"Abasolo","type":"city","country_code":"MX","country_name":"Mexico","region":"Chiapas","region_id":2509,"supports_region":true,"supports_city":true,"lat":16.8207072,"lng":-92.21628820000001,"googleName":"Abasolo, Chis., Mexico","googleId":"ChIJzagChcm48oURUgRB0_ZWkHo","types":["locality","political"]}
{"key":"1502318","name":"Abasolo","type":"city","country_code":"MX","country_name":"Mexico","region":"Coahuila de Zaragoza","region_id":2511,"supports_region":true,"supports_city":true,"lat":25.4313285,"lng":-100.9862902,"googleName":"Calle Mariano Abasolo, Topochico, Saltillo, Coah., Mexico","googleId":"EklDYWxsZSBNYXJpYW5vIEFiYXNvbG8sIFRvcG9jaGljbywgU2FsdGlsbG8sIENvYWh1aWxhIGRlIFphcmFnb3phLCBNw6l4aWNv","types":["route"]}
{"key":"1502325","name":"Abasolo Del Valle","type":"city","country_code":"MX","country_name":"Mexico","region":"Veracruz","region_id":2534,"supports_region":true,"supports_city":true,"lat":17.7834582,"lng":-95.5431826,"googleName":"Abasolo del Valle, Ver., Mexico","googleId":"ChIJC_Etc-GPwYURsTBfsqkQe7k","types":["locality","political"]}
{"key":"1559290","name":"Villa Abasolo","type":"city","country_code":"MX","country_name":"Mexico","region":"Guanajuato","region_id":2515,"supports_region":true,"supports_city":true,"lat":20.4442194,"lng":-101.5300421,"googleName":"Francisco Villa, El Mirador, 36970 Abasolo, Gto., Mexico","googleId":"EjlGcmFuY2lzY28gVmlsbGEsIEVsIE1pcmFkb3IsIEFiYXNvbG8sIEd1YW5hanVhdG8sIE3DqXhpY28","types":["route"]}
{"key":"1503916","name":"Ameca","type":"city","country_code":"MX","country_name":"Mexico","region":"Jalisco","region_id":2518,"supports_region":true,"supports_city":true,"lat":20.5476292,"lng":-104.0466547,"googleName":"Ameca, Jalisco, Mexico","googleId":"ChIJgVBlE4nWJYQR-bmim_fbigY","types":["administrative_area_level_2","locality","political"]}
{"key":"1524881","name":"Jilotepec De Abasolo","type":"city","country_code":"MX","country_name":"Mexico","region":"State of Mexico","region_id":2519,"supports_region":true,"supports_city":true,"lat":19.9524157,"lng":-99.53261669999999,"googleName":"Jilotepec de Abasolo, State of Mexico, Mexico","googleId":"ChIJI8mB-yc00oURPOZnm79KXtk","types":["administrative_area_level_2","political"]}
{"key":"1514062","name":"Ejido Abasolo","type":"city","country_code":"MX","country_name":"Mexico","region":"Tamaulipas","region_id":2532,"supports_region":true,"supports_city":true,"lat":24.0593289,"lng":-98.37716329999999,"googleName":"Abasolo, Tamaulipas, Mexico","googleId":"ChIJBfJOMc8oeoYRFCBxlGu4B8Q","types":["locality","political"]}
{"key":"1549016","name":"San Isidro Apango","type":"city","country_code":"MX","country_name":"Mexico","region":"Oaxaca","region_id":2524,"supports_region":true,"supports_city":true,"lat":15.8086166,"lng":-96.3596388,"googleName":"San Isidro Apango, Oax., Mexico","googleId":"ChIJFQvAQ1wsv4URMfmR35cpE8g","types":["locality","political"]}
{"key":"1502322","name":"Abasolo","type":"city","country_code":"MX","country_name":"Mexico","region":"Oaxaca","region_id":2524,"supports_region":true,"supports_city":true,"lat":17.0644027,"lng":-96.72202349999999,"googleName":"Calle de Mariano Abasolo, RUTA INDEPENDENCIA, Centro, Oaxaca, Oax., Mexico","googleId":"EiZBYmFzb2xvLCBDZW50cm8sIE9heGFjYSwgT2F4LiwgTcOpeGljbw","types":["route"]}
{"key":"1502399","name":"Acalita De Ameca","type":"city","country_code":"MX","country_name":"Mexico","region":"Zacatecas","region_id":2536,"supports_region":true,"supports_city":true,"lat":22.9030555,"lng":-104.09,"googleName":"Acatita de Ameca, Zac., Mexico","googleId":"ChIJcTkhITDlnIYRWFFQIvsDtGo","types":["locality","political"]}
{"key":"1509445","name":"Chahuites","type":"city","country_code":"MX","country_name":"Mexico","region":"Oaxaca","region_id":2524,"supports_region":true,"supports_city":true,"lat":16.2865309,"lng":-94.1929799,"googleName":"Chahuites, Oaxaca, Mexico","googleId":"ChIJVx-6jHXFlIURU8WlZwvfdvQ","types":["locality","political"]}
{"key":"1532388","name":"Los Atlixcos","type":"city","country_code":"MX","country_name":"Mexico","region":"Veracruz","region_id":2534,"supports_region":true,"supports_city":true,"lat":19.8005599,"lng":-96.54139,"googleName":"Los Atlixcos, Ver., Mexico","googleId":"ChIJN3E20apd24URwQH1Zcjz_fM","types":["locality","political"]}
{"key":"1504248","name":"Apizaco","type":"city","country_code":"MX","country_name":"Mexico","region":"Puebla","region_id":2525,"supports_region":true,"supports_city":true,"lat":19.1833329,"lng":-97.30000009999999,"googleName":"Apizaco, Pue., Mexico","googleId":"ChIJh46p8AI7xYUREtpNV6tBKKs","types":["locality","political"]}
{"key":"1504969","name":"Atoyac","type":"city","country_code":"MX","country_name":"Mexico","region":"Jalisco","region_id":2518,"supports_region":true,"supports_city":true,"lat":20.0074267,"lng":-103.517665,"googleName":"Atoyac, Jalisco, Mexico","googleId":"ChIJlWUn8ZpiL4QRPPp7x2xLhkY","types":["locality","political"]}
{"key":"1504182","name":"Apango","type":"city","country_code":"MX","country_name":"Mexico","region":"Guerrero","region_id":2516,"supports_region":true,"supports_city":true,"lat":17.741043,"lng":-99.32708149999999,"googleName":"Apango, Guerrero, Mexico","googleId":"ChIJT4pRbnj5y4URFLnLep7DPkk","types":["locality","political"]}
{"key":"1503918","name":"Ameca","type":"city","country_code":"MX","country_name":"Mexico","region":"Zacatecas","region_id":2536,"supports_region":true,"supports_city":true,"lat":22.9544444,"lng":-104.0008333,"googleName":"Ameca, Zac., Mexico","googleId":"ChIJeWIdzvrlnIYRdVPBHHpEOnI","types":["locality","political"]}
{"key":"1504960","name":"Atotonilco El Alto","type":"city","country_code":"MX","country_name":"Mexico","region":"Jalisco","region_id":2518,"supports_region":true,"supports_city":true,"lat":20.5502447,"lng":-102.5081224,"googleName":"Atotonilco El Alto, Jalisco, Mexico","googleId":"ChIJTwQysNDLLoQRzkYnKpc1FQU","types":["locality","political"]}
{"key":"1504968","name":"Atoyac","type":"city","country_code":"MX","country_name":"Mexico","region":"Guerrero","region_id":2516,"supports_region":true,"supports_city":true,"lat":17.201891,"lng":-100.429298,"googleName":"18 de Mayo, 40930 Atoyac, Gro., Mexico","googleId":"ChIJGyX-9lEly4URMPNOskDly5I","types":["locality","political"]}
{"key":"1504185","name":"Apanguito","type":"city","country_code":"MX","country_name":"Mexico","region":"Oaxaca","region_id":2524,"supports_region":true,"supports_city":true,"lat":15.8351971,"lng":-96.33539999999999,"googleName":"Apanguito, Oax., Mexico","googleId":"ChIJj6ucycctv4URF9fFdllMMKM","types":["locality","political"]}
{"key":"1503067","name":"Agua Prieta","type":"city","country_code":"MX","country_name":"Mexico","region":"San Luis Potosi","region_id":2528,"supports_region":true,"supports_city":true,"lat":22.2577779,"lng":-101.1808329,"googleName":"Agua Prieta, S.L.P., Mexico","googleId":"ChIJG9A7qUMogIYRvTnA0z-bR7U","types":["locality","political"]}
{"key":"1502319","name":"Abasolo","type":"city","country_code":"MX","country_name":"Mexico","region":"Durango","region_id":2514,"supports_region":true,"supports_city":true,"lat":25.3108333,"lng":-104.655,"googleName":"Abasolo, Dgo., Mexico","googleId":"ChIJLd7BgKjqkIYRrFgdMn0HTt0","types":["locality","political"]}
{"key":"1509130","name":"Cerro Azul","type":"city","country_code":"MX","country_name":"Mexico","region":"Veracruz","region_id":2534,"supports_region":true,"supports_city":true,"lat":21.1843885,"lng":-97.7471025,"googleName":"Cerro Azul, Ver., Mexico","googleId":"ChIJ2T0-5izi2YURZcaZsLnSMwU","types":["locality","political"]}
{"key":"1504374","name":"Arcelia","type":"city","country_code":"MX","country_name":"Mexico","region":"Guerrero","region_id":2516,"supports_region":true,"supports_city":true,"lat":18.3151227,"lng":-100.2851372,"googleName":"Arcelia, Guerrero, Mexico","googleId":"ChIJ1WnVMHrCzIURzZB_qcQrYYM","types":["locality","political"]}
{"key":"1504502","name":"Arriaga Municipality","type":"city","country_code":"MX","country_name":"Mexico","region":"Chiapas","region_id":2509,"supports_region":true,"supports_city":true,"lat":16.2371385,"lng":-93.8986279,"googleName":"Arriaga, Chis., Mexico","googleId":"ChIJXVE4RpGklIURnVaeiww6E8Q","types":["locality","political"]}
{"key":"1502503","name":"Acayucan","type":"city","country_code":"MX","country_name":"Mexico","region":"Veracruz","region_id":2534,"supports_region":true,"supports_city":true,"lat":17.949192,"lng":-94.91459739999999,"googleName":"Acayucan, Ver., Mexico","googleId":"ChIJ771dv7EC6oURk-gRvkjjUOQ","types":["locality","political"]}
{"key":"1549854","name":"San Juan Amecac","type":"city","country_code":"MX","country_name":"Mexico","region":"Puebla","region_id":2525,"supports_region":true,"supports_city":true,"lat":18.8358058,"lng":-98.6584244,"googleName":"San Juan Amecac, Pue., Mexico","googleId":"ChIJF5EPE4dPzoURONkEDOdLfEA","types":["locality","political"]}
{"key":"1502425","name":"Acaponeta","type":"city","country_code":"MX","country_name":"Mexico","region":"Nayarit","region_id":2522,"supports_region":true,"supports_city":true,"lat":22.4959544,"lng":-105.3628846,"googleName":"Acaponeta, Nayarit, Mexico","googleId":"ChIJobmeowZnnoYRKprzJ27mNYs","types":["locality","political"]}
{"key":"1504375","name":"Arcelia Del Progreso","type":"city","country_code":"MX","country_name":"Mexico","region":"Guerrero","region_id":2516,"supports_region":true,"supports_city":true,"lat":16.735834,"lng":-98.646108,"googleName":"Arcelia del Progreso, Gro., Mexico","googleId":"ChIJm8XknOO3yYUR5S2LjZMa9-w","types":["locality","political"]}
{"key":"1503920","name":"Amecameca","type":"city","country_code":"MX","country_name":"Mexico","region":"State of Mexico","region_id":2519,"supports_region":true,"supports_city":true,"lat":19.1252361,"lng":-98.76711309999999,"googleName":"Amecameca, State of Mexico, Mexico","googleId":"ChIJf94CI6E7zoURAGPlwqPtKyw","types":["administrative_area_level_2","political"]}
{"key":"1506964","name":"Cabo San Lucas","type":"city","country_code":"MX","country_name":"Mexico","region":"Baja California Sur","region_id":2507,"supports_region":true,"supports_city":true,"lat":22.8905327,"lng":-109.9167371,"googleName":"Cabo San Lucas, Baja California Sur, Mexico","googleId":"ChIJoQjlifNKr4YRaLiiwWLfpEs","types":["locality","political"]}
{"key":"1504188","name":"Apanquito","type":"city","country_code":"MX","country_name":"Mexico","region":"Guerrero","region_id":2516,"supports_region":true,"supports_city":true,"lat":18.1574654,"lng":-99.1418623,"googleName":"Apanguito, Guerrero, Mexico","googleId":"EhxBcGFuZ3VpdG8sIEd1ZXJyZXJvLCBNw6l4aWNv","types":["route"]}
{"key":"1504181","name":"Apan","type":"city","country_code":"MX","country_name":"Mexico","region":"Hidalgo","region_id":2517,"supports_region":true,"supports_city":true,"lat":19.711382,"lng":-98.45407,"googleName":"Apan, Hgo., Mexico","googleId":"ChIJGdbrY-E00IURJ8vo0GQbYmA","types":["locality","political"]}
{"key":"1503971","name":"Amozoc","type":"city","country_code":"MX","country_name":"Mexico","region":"Puebla","region_id":2525,"supports_region":true,"supports_city":true,"lat":19.043829,"lng":-98.0437894,"googleName":"Amozoc de Mota, Puebla, Mexico","googleId":"ChIJc9x-rXzrz4URm6348VpfMYk","types":["locality","political"]}
{"key":"1503972","name":"Amozoc De Mota","type":"city","country_code":"MX","country_name":"Mexico","region":"Puebla","region_id":2525,"supports_region":true,"supports_city":true,"lat":19.043829,"lng":-98.0437894,"googleName":"Amozoc de Mota, Puebla, Mexico","googleId":"ChIJc9x-rXzrz4URm6348VpfMYk","types":["locality","political"]}
{"key":"1509876","name":"Chiapa de Corzo","type":"city","country_code":"MX","country_name":"Mexico","region":"Chiapas","region_id":2509,"supports_region":true,"supports_city":true,"lat":16.7021616,"lng":-93.0081378,"googleName":"Chiapa de Corzo, Chis., Mexico","googleId":"ChIJ1d5DhAom7YURa2uBtz8Wkx8","types":["locality","political"]}
{"key":"1504191","name":"Apantlasol","type":"city","country_code":"MX","country_name":"Mexico","region":"Hidalgo","region_id":2517,"supports_region":true,"supports_city":true,"lat":20.9892201,"lng":-98.58417279999999,"googleName":"Apantlazol, Hgo., Mexico","googleId":"EihBcGFudGxhem9sLCBUbGFuY2hpbm9sLCBIaWRhbGdvLCBNw6l4aWNv","types":["locality","political"]}
{"key":"1504187","name":"Apanquezalco","type":"city","country_code":"MX","country_name":"Mexico","region":"Morelos","region_id":2521,"supports_region":true,"supports_city":true,"lat":18.9027652,"lng":-99.0702403,"googleName":"Apanquetzalco, Yautepec de Zaragoza, Mor., Mexico","googleId":"Eh9BcGFucXVldHphbGNvLCBNb3JlbG9zLCBNw6l4aWNv","types":["sublocality_level_1","sublocality","political"]}
{"key":"1504925","name":"Atlixco","type":"city","country_code":"MX","country_name":"Mexico","region":"Puebla","region_id":2525,"supports_region":true,"supports_city":true,"lat":18.9131227,"lng":-98.4293891,"googleName":"Atlixco, Puebla, Mexico","googleId":"ChIJNfkV4O6zz4UR5wD3-aMSS1w","types":["locality","political"]}
{"key":"1503919","name":"Amecac","type":"city","country_code":"MX","country_name":"Mexico","region":"Puebla","region_id":2525,"supports_region":true,"supports_city":true,"lat":18.8333934,"lng":-98.5985715,"googleName":"A San Juan Amecac, San Lucas Tulcingo, Pue., Mexico","googleId":"EjZBIFNhbiBKdWFuIEFtZWNhYywgU2FuIEx1Y2FzIFR1bGNpbmdvLCBQdWVibGEsIE3DqXhpY28","types":["route"]}
{"key":"1504249","name":"Apizaco","type":"city","country_code":"MX","country_name":"Mexico","region":"Tlaxcala","region_id":2533,"supports_region":true,"supports_city":true,"lat":19.415881,"lng":-98.1393179,"googleName":"Apizaco, Tlaxcala, Mexico","googleId":"ChIJ3b2gsxgg0IURPstLY81Elqk","types":["locality","political"]}
{"key":"1509884","name":"Chiautempan","type":"city","country_code":"MX","country_name":"Mexico","region":"Tlaxcala","region_id":2533,"supports_region":true,"supports_city":true,"lat":19.3125811,"lng":-98.191238,"googleName":"Chiautempan, Tlaxcala, Mexico","googleId":"ChIJRTpTkZLez4UR40kIczErJt0","types":["locality","political"]}
{"key":"1503065","name":"Agua Prieta","type":"city","country_code":"MX","country_name":"Mexico","region":"Chiapas","region_id":2509,"supports_region":true,"supports_city":true,"lat":15.219225,"lng":-92.3505833,"googleName":"Agua Prieta, Chis., Mexico","googleId":"ChIJLbHwoA76jYURv9y_ip_9ZOs","types":["locality","political"]}
{"key":"1504926","name":"Atlixcos","type":"city","country_code":"MX","country_name":"Mexico","region":"Veracruz","region_id":2534,"supports_region":true,"supports_city":true,"lat":19.808889,"lng":-96.526389,"googleName":"Atlixcos, Veracruz, Mexico","googleId":"ChIJz26YR5hd24URW91Jp5pn2bc","types":["natural_feature","establishment"]}
{"key":"1505144","name":"Ayutla","type":"city","country_code":"MX","country_name":"Mexico","region":"Guerrero","region_id":2516,"supports_region":true,"supports_city":true,"lat":16.9658305,"lng":-99.0930528,"googleName":"Ayutla de los Libres, Gro., Mexico","googleId":"ChIJ1TJHsyOEyYURR7Cl_bcxh70","types":["locality","political"]}
{"key":"1510921","name":"Ciudad Altamirano","type":"city","country_code":"MX","country_name":"Mexico","region":"Guerrero","region_id":2516,"supports_region":true,"supports_city":true,"lat":18.3578156,"lng":-100.6686262,"googleName":"Ciudad Altamirano, Guerrero, Mexico","googleId":"ChIJQYKduw4tM4QRgHduNNiDL6A","types":["locality","political"]}
{"key":"1508249","name":"Capulhuac De Mirafuentes","type":"city","country_code":"MX","country_name":"Mexico","region":"State of Mexico","region_id":2519,"supports_region":true,"supports_city":true,"lat":19.1976292,"lng":-99.4649628,"googleName":"Capulhuac de Mirafuentes, Méx., Mexico","googleId":"ChIJgwPOKsXzzYURZSQLBndztUE","types":["locality","political"]}
{"key":"1551291","name":"San Pedro Atlixco","type":"city","country_code":"MX","country_name":"Mexico","region":"Puebla","region_id":2525,"supports_region":true,"supports_city":true,"lat":18.9805554,"lng":-98.4769444,"googleName":"San Pedro Atlixco, Pue., Mexico","googleId":"ChIJ8TY5N061z4URnh9OBhwqWHI","types":["locality","political"]}
{"key":"1504503","name":"Arriaga","type":"city","country_code":"MX","country_name":"Mexico","region":"Coahuila de Zaragoza","region_id":2511,"supports_region":true,"supports_city":true,"lat":25.5426072,"lng":-103.4413071,"googleName":"Arriaga, Segundo de Cobián Centro, 27000 Torreón, Coah., Mexico","googleId":"EktBcnJpYWdhLCBTZWd1bmRvIGRlIENvYmnDoW4gQ2VudHJvLCBUb3JyZcOzbiwgQ29haHVpbGEgZGUgWmFyYWdvemEsIE3DqXhpY28","types":["route"]}
{"key":"1504206","name":"Apaseo el Grande","type":"city","country_code":"MX","country_name":"Mexico","region":"Guanajuato","region_id":2515,"supports_region":true,"supports_city":true,"lat":20.5446948,"lng":-100.6844284,"googleName":"Apaseo el Grande, Guanajuato, Mexico","googleId":"ChIJC48rhGmyLIQRUaovo8hUffw","types":["locality","political"]}
{"key":"1548054","name":"San Bartolo Actopan","type":"city","country_code":"MX","country_name":"Mexico","region":"State of Mexico","region_id":2519,"supports_region":true,"supports_city":true,"lat":19.8352889,"lng":-98.85311259999999,"googleName":"San Bartolomé Actopan, Méx., Mexico","googleId":"ChIJ47fH4A2W0YURqwZ4zINzN8E","types":["locality","political"]}
{"key":"1503198","name":"Ahome","type":"city","country_code":"MX","country_name":"Mexico","region":"Sinaloa","region_id":2529,"supports_region":true,"supports_city":true,"lat":25.7904061,"lng":-108.9917304,"googleName":"Ahome, Sinaloa, Mexico","googleId":"ChIJm2U84GSKuYYR4S2qu_46eKw","types":["administrative_area_level_2","political"]}
{"key":"1504970","name":"Atoyac","type":"city","country_code":"MX","country_name":"Mexico","region":"Oaxaca","region_id":2524,"supports_region":true,"supports_city":true,"lat":17.0663742,"lng":-96.741569,"googleName":"Manuel Gómez Morín 410, Emiliano Zapata, 68162 Oaxaca, Oax., Mexico","googleId":"ChIJZyobgQ4ix4URPuVIVqicA5M","types":["car_repair","store","point_of_interest","establishment"]}
{"key":"1502586","name":"Actopan","type":"city","country_code":"MX","country_name":"Mexico","region":"Hidalgo","region_id":2517,"supports_region":true,"supports_city":true,"lat":20.2743499,"lng":-98.95213570000001,"googleName":"Actopan, Hgo., Mexico","googleId":"ChIJJXUJ8CBu0YURKji1iAsUZfg","types":["locality","political"]}
{"key":"1502587","name":"Actopan","type":"city","country_code":"MX","country_name":"Mexico","region":"Veracruz","region_id":2534,"supports_region":true,"supports_city":true,"lat":19.5045113,"lng":-96.6157839,"googleName":"Actopan, Ver., Mexico","googleId":"ChIJDTeFVqJN24URwp1LFZPVHHM","types":["locality","political"]}
{"key":"1508248","name":"Capulhuac","type":"city","country_code":"MX","country_name":"Mexico","region":"State of Mexico","region_id":2519,"supports_region":true,"supports_city":true,"lat":19.1932184,"lng":-99.46760859999999,"googleName":"Capulhuac, State of Mexico, Mexico","googleId":"ChIJzRG4Vf3zzYURVTWQtjAqr70","types":["administrative_area_level_2","political"]}
{"key":"1504971","name":"Atoyac","type":"city","country_code":"MX","country_name":"Mexico","region":"Veracruz","region_id":2534,"supports_region":true,"supports_city":true,"lat":18.9128113,"lng":-96.7788461,"googleName":"Atoyac, Ver., Mexico","googleId":"ChIJZWyItBvtxIURK612u2BrJB8","types":["locality","political"]}
{"key":"1503068","name":"Agua Prieta","type":"city","country_code":"MX","country_name":"Mexico","region":"Sonora","region_id":2530,"supports_region":true,"supports_city":true,"lat":31.3277755,"lng":-109.5489617,"googleName":"Agua Prieta, Sonora, Mexico","googleId":"ChIJ2XXm1nSn0IYRQvN-1olCrZw","types":["locality","political"]}
{"key":"1509864","name":"Chetumal","type":"city","country_code":"MX","country_name":"Mexico","region":"Quintana Roo","region_id":2527,"supports_region":true,"supports_city":true,"lat":18.5001889,"lng":-88.296146,"googleName":"Chetumal, Quintana Roo, Mexico","googleId":"ChIJD_nXLFWjW48R7VO18NfsSSE","types":["locality","political"]}
{"key":"1510931","name":"Ciudad Chetumal","type":"city","country_code":"MX","country_name":"Mexico","region":"Quintana Roo","region_id":2527,"supports_region":true,"supports_city":true,"lat":18.5001889,"lng":-88.296146,"googleName":"Chetumal, Quintana Roo, Mexico","googleId":"ChIJD_nXLFWjW48R7VO18NfsSSE","types":["locality","political"]}
{"key":"1508876","name":"Cazones De Herrera","type":"city","country_code":"MX","country_name":"Mexico","region":"Veracruz","region_id":2534,"supports_region":true,"supports_city":true,"lat":20.7026177,"lng":-97.3117934,"googleName":"Cazones de Herrera, Ver., Mexico","googleId":"ChIJnXU3-wA72oURYD8nRL6rgwQ","types":["locality","political"]}
{"key":"1504183","name":"Apango","type":"city","country_code":"MX","country_name":"Mexico","region":"Jalisco","region_id":2518,"supports_region":true,"supports_city":true,"lat":19.7800735,"lng":-103.7119966,"googleName":"Camino a San Miguel, Jalisco, Mexico","googleId":"ChIJj7tT9xN4JYQRm48IuLO_hOA","types":["point_of_interest","establishment"]}
{"key":"1503312","name":"Ajijic","type":"city","country_code":"MX","country_name":"Mexico","region":"Jalisco","region_id":2518,"supports_region":true,"supports_city":true,"lat":20.2996995,"lng":-103.2637074,"googleName":"Ajijic, Jalisco, Mexico","googleId":"ChIJtSinkExBL4QRY52kBXEK1rg","types":["locality","political"]}
{"key":"1551857","name":"Santa Ana Chiautempan","type":"city","country_code":"MX","country_name":"Mexico","region":"Tlaxcala","region_id":2533,"supports_region":true,"supports_city":true,"lat":19.3125811,"lng":-98.191238,"googleName":"Chiautempan, Tlaxcala, Mexico","googleId":"ChIJRTpTkZLez4UR40kIczErJt0","types":["locality","political"]}
{"key":"1503915","name":"Ameca","type":"city","country_code":"MX","country_name":"Mexico","region":"Hidalgo","region_id":2517,"supports_region":true,"supports_city":true,"lat":21.2480824,"lng":-98.92996389999999,"googleName":"La Ameca, Hgo., Mexico","googleId":"ChIJB2MtJwSW1oURg30OKO2Ce0I","types":["locality","political"]}
{"key":"1510157","name":"Chilpancingo","type":"city","country_code":"MX","country_name":"Mexico","region":"Guerrero","region_id":2516,"supports_region":true,"supports_city":true,"lat":17.5515346,"lng":-99.5006322,"googleName":"Chilpancingo, Guerrero, Mexico","googleId":"ChIJpYZxmOiTy4URlu9lWBLvhWw","types":["locality","political"]}
{"key":"1503238","name":"Ahualulco de Mercado","type":"city","country_code":"MX","country_name":"Mexico","region":"Jalisco","region_id":2518,"supports_region":true,"supports_city":true,"lat":20.6998901,"lng":-103.9753155,"googleName":"Ahualulco de Mercado, Jalisco, Mexico","googleId":"ChIJmcg0b4htJoQRl6vNiSdrFz0","types":["locality","political"]}
{"key":"1508814","name":"Catemaco","type":"city","country_code":"MX","country_name":"Mexico","region":"Veracruz","region_id":2534,"supports_region":true,"supports_city":true,"lat":18.4212621,"lng":-95.1129658,"googleName":"Catemaco, Ver., Mexico","googleId":"ChIJwdRIvo8LwoURAWZXoSLxwwk","types":["locality","political"]}
{"key":"1551293","name":"San Pedro Atoyac","type":"city","country_code":"MX","country_name":"Mexico","region":"Oaxaca","region_id":2524,"supports_region":true,"supports_city":true,"lat":16.4891091,"lng":-97.9860626,"googleName":"San Pedro Atoyac, Oax., Mexico","googleId":"ChIJVa6O7iAbyIURE97Jq2DSa7s","types":["administrative_area_level_2","political"]}
{"key":"1505265","name":"Bacalar","type":"city","country_code":"MX","country_name":"Mexico","region":"Quintana Roo","region_id":2527,"supports_region":true,"supports_city":true,"lat":18.6782919,"lng":-88.3923946,"googleName":"Bacalar, Quintana Roo, Mexico","googleId":"ChIJ-RksMD6xW48RCObQK3_czhE","types":["locality","political"]}
{"key":"1504504","name":"Arriaga","type":"city","country_code":"MX","country_name":"Mexico","region":"San Luis Potosi","region_id":2528,"supports_region":true,"supports_city":true,"lat":22.1539018,"lng":-100.9739426,"googleName":"Eje Vial Ponciano Arriaga, Centro Historico, 78000 San Luis, S.L.P., Mexico","googleId":"Ek5FamUgVmlhbCBQb25jaWFubyBBcnJpYWdhLCBDZW50cm8gSGlzdG9yaWNvLCBTYW4gTHVpcyBQb3Rvc8OtLCBTLkwuUC4sIE3DqXhpY28","types":["route"]}
{"key":"1510922","name":"Ciudad Altamirano, Michoacan De Ocampo","type":"city","country_code":"MX","country_name":"Mexico","region":"Guerrero","region_id":2516,"supports_region":true,"supports_city":true,"lat":18.893936,"lng":-100.1775823,"googleName":"Cd Altamirano - Toluca, Mexico","googleId":"EmdDaXVkYWQgQWx0YW1pcmFubyAtIFRvbHVjYSwgU2FudGEgTWFyw61hIGRlIGxhcyBSb3NhcywgQ2l1ZGFkIEFsdGFtaXJhbm8sIE1pY2hvYWPDoW4gZGUgT2NhbXBvLCBNw6l4aWNv","types":["route"]}
{"key":"1503066","name":"Agua Prieta","type":"city","country_code":"MX","country_name":"Mexico","region":"Durango","region_id":2514,"supports_region":true,"supports_city":true,"lat":22.8322571,"lng":-104.4341241,"googleName":"Agua Prieta, Dgo., Mexico","googleId":"ChIJ3e6maFFQnIYROPWfdlz-iS8","types":["locality","political"]}
{"key":"1505149","name":"Ayutla De Los Libres","type":"city","country_code":"MX","country_name":"Mexico","region":"Guerrero","region_id":2516,"supports_region":true,"supports_city":true,"lat":16.9658305,"lng":-99.0930528,"googleName":"Ayutla de los Libres, Gro., Mexico","googleId":"ChIJ1TJHsyOEyYURR7Cl_bcxh70","types":["locality","political"]}
{"key":"1509127","name":"Cerro Azul","type":"city","country_code":"MX","country_name":"Mexico","region":"Hidalgo","region_id":2517,"supports_region":true,"supports_city":true,"lat":20.3376738,"lng":-99.30987259999999,"googleName":"Cerro Azul, Hgo., Mexico","googleId":"ChIJCe89U73b04URemUe8LPbewg","types":["locality","political"]}
{"key":"1552126","name":"Santa Cruz Acayucan","type":"city","country_code":"MX","country_name":"Mexico","region":"Distrito Federal","region_id":2513,"supports_region":true,"supports_city":true,"lat":19.4756239,"lng":-99.1944048,"googleName":"Santa Cruz Acayucan, Ciudad de México, CDMX, Mexico","googleId":"EkFTYW50YSBDcnV6IEFjYXl1Y2FuLCBDaXVkYWQgZGUgTcOpeGljbywgRGlzdHJpdG8gRmVkZXJhbCwgTcOpeGljbw","types":["sublocality_level_1","sublocality","political"]}
{"key":"1504186","name":"Apanita","type":"city","country_code":"MX","country_name":"Mexico","region":"Jalisco","region_id":2518,"supports_region":true,"supports_city":true,"lat":20.6356056,"lng":-103.4147517,"googleName":"La Calma 3692, Paseos del Sol, La Calma, 45070 Zapopan, Jal., Mexico","googleId":"ChIJZRkIZF2sKIQRW_l9gGL038w","types":["clothing_store","store","point_of_interest","establishment"]}
{"key":"1542859","name":"Ranchito Cerro Azul","type":"city","country_code":"MX","country_name":"Mexico","region":"Tamaulipas","region_id":2532,"supports_region":true,"supports_city":true,"lat":26.118451,"lng":-99.043089,"googleName":"Ranchito Cerro Azul, Tamps., Mexico","googleId":"ChIJ1ZIsIZGHZIYRMEf-P40A7HY","types":["locality","political"]}
{"key":"1507364","name":"Calvillo","type":"city","country_code":"MX","country_name":"Mexico","region":"Guanajuato","region_id":2515,"supports_region":true,"supports_city":true,"lat":21.1133333,"lng":-101.1330555,"googleName":"Calvillo, Gto., Mexico","googleId":"ChIJ3VeDsM4SK4QRFju_z7Lvru4","types":["locality","political"]}
{"key":"1525131","name":"Joya De Calvillo","type":"city","country_code":"MX","country_name":"Mexico","region":"Guanajuato","region_id":2515,"supports_region":true,"supports_city":true,"lat":20.7497222,"lng":-101.6075,"googleName":"La Joya de Calvillo, Gto., Mexico","googleId":"ChIJH1lvs3iJK4QRuYMZvaAxzKc","types":["locality","political"]}
{"key":"1508952","name":"Celaya","type":"city","country_code":"MX","country_name":"Mexico","region":"Guanajuato","region_id":2515,"supports_region":true,"supports_city":true,"lat":20.5279612,"lng":-100.8112885,"googleName":"Celaya, Guanajuato, Mexico","googleId":"ChIJdcZgHmS6LIQRRyd9mq3Tj5k","types":["locality","political"]}
{"key":"1504343","name":"Arandas","type":"city","country_code":"MX","country_name":"Mexico","region":"Jalisco","region_id":2518,"supports_region":true,"supports_city":true,"lat":20.705519,"lng":-102.346916,"googleName":"Arandas, Jalisco, Mexico","googleId":"ChIJJYH6JHdMKYQRhhTaCscOcQE","types":["locality","political"]}
{"key":"1507365","name":"Calvillo","type":"city","country_code":"MX","country_name":"Mexico","region":"Zacatecas","region_id":2536,"supports_region":true,"supports_city":true,"lat":23.0380555,"lng":-103.3266666,"googleName":"Calvillo, Zac., Mexico","googleId":"ChIJ27jr_-Q6g4YR_7zOivBMMsg","types":["locality","political"]}
{"key":"1504081","name":"Angostura","type":"city","country_code":"MX","country_name":"Mexico","region":"Durango","region_id":2514,"supports_region":true,"supports_city":true,"lat":25.0833329,"lng":-106.6833331,"googleName":"Angostura, Dgo., Mexico","googleId":"ChIJeb-NQ4dnvYYRn26wHn1KrzU","types":["locality","political"]}
{"key":"1509129","name":"Cerro Azul","type":"city","country_code":"MX","country_name":"Mexico","region":"Puebla","region_id":2525,"supports_region":true,"supports_city":true,"lat":19.0406534,"lng":-98.1320417,"googleName":"Cerro Azul, Amaluqilla, Puebla, Pue., Mexico","googleId":"Ei1DZXJybyBBenVsLCBBbWFsdXFpbGxhLCBQdWVibGEsIFB1ZS4sIE3DqXhpY28","types":["route"]}
{"key":"1510403","name":"Choix","type":"city","country_code":"MX","country_name":"Mexico","region":"Sinaloa","region_id":2529,"supports_region":true,"supports_city":true,"lat":26.7087657,"lng":-108.3245451,"googleName":"Choix, Sinaloa, Mexico","googleId":"ChIJwRwNMVYnuYYR-wRFYA9R9Hg","types":["locality","political"]}
{"key":"1503678","name":"Altamira","type":"city","country_code":"MX","country_name":"Mexico","region":"Zacatecas","region_id":2536,"supports_region":true,"supports_city":true,"lat":23.3819444,"lng":-102.9869444,"googleName":"Altamira, Zac., Mexico","googleId":"ChIJSzYLGSJwg4YR5RXu6rUQmow","types":["locality","political"]}
{"key":"1503668","name":"Altamira","type":"city","country_code":"MX","country_name":"Mexico","region":"Campeche","region_id":2508,"supports_region":true,"supports_city":true,"lat":17.9603399,"lng":-89.5274961,"googleName":"Altamira, Camp., Mexico","googleId":"ChIJxVqdQdwtX48Rfo-20otZ5qA","types":["locality","political"]}
{"key":"1508954","name":"Celaya","type":"city","country_code":"MX","country_name":"Mexico","region":"Tamaulipas","region_id":2532,"supports_region":true,"supports_city":true,"lat":20.5294708,"lng":-100.807358,"googleName":"Tamaulipas, Alameda, 38050 Celaya, Gto., Mexico","googleId":"EipUYW1hdWxpcGFzLCBBbGFtZWRhLCBDZWxheWEsIEd0by4sIE3DqXhpY28","types":["route"]}
{"key":"1528276","name":"La Mesa Del Cerro Azul","type":"city","country_code":"MX","country_name":"Mexico","region":"Guerrero","region_id":2516,"supports_region":true,"supports_city":true,"lat":17.739322,"lng":-100.607004,"googleName":"La Mesa del Cerro Azul, Gro., Mexico","googleId":"ChIJn0LeN0ZVy4URvYYQq-9iuZg","types":["locality","political"]}
{"key":"1503587","name":"Allende","type":"city","country_code":"MX","country_name":"Mexico","region":"Quintana Roo","region_id":2527,"supports_region":true,"supports_city":true,"lat":19.8499999,"lng":-88.01666709999999,"googleName":"Allende, Q.R., Mexico","googleId":"ChIJBZtn-ANmUI8RTW-FaF4R6Jg","types":["locality","political"]}
{"key":"1510922","name":"Ciudad Altamirano, Michoacan De Ocampo","type":"city","country_code":"MX","country_name":"Mexico","region":"Guerrero","region_id":2516,"supports_region":true,"supports_city":true,"lat":18.893936,"lng":-100.1775823,"googleName":"Cd Altamirano - Toluca, Mexico","googleId":"EmdDaXVkYWQgQWx0YW1pcmFubyAtIFRvbHVjYSwgU2FudGEgTWFyw61hIGRlIGxhcyBSb3NhcywgQ2l1ZGFkIEFsdGFtaXJhbm8sIE1pY2hvYWPDoW4gZGUgT2NhbXBvLCBNw6l4aWNv","types":["route"]}
{"key":"1503750","name":"Alvarado","type":"city","country_code":"MX","country_name":"Mexico","region":"Zacatecas","region_id":2536,"supports_region":true,"supports_city":true,"lat":22.3661111,"lng":-101.9511111,"googleName":"Col Alvarado, Zac., Mexico","googleId":"ChIJtU-osJzwgYYR7hMNUHxCStY","types":["locality","political"]}
{"key":"1508951","name":"Celaya","type":"city","country_code":"MX","country_name":"Mexico","region":"Chiapas","region_id":2509,"supports_region":true,"supports_city":true,"lat":16.7494139,"lng":-92.6446783,"googleName":"Celaya, Tlaxcala, 29210 San Cristóbal de las Casas, Chis., Mexico","googleId":"Ej9DZWxheWEsIFRsYXhjYWxhLCBTYW4gQ3Jpc3TDs2JhbCBkZSBsYXMgQ2FzYXMsIENoaWFwYXMsIE3DqXhpY28","types":["route"]}
{"key":"1503747","name":"Alvarado","type":"city","country_code":"MX","country_name":"Mexico","region":"Tabasco","region_id":2531,"supports_region":true,"supports_city":true,"lat":17.8213888,"lng":-93.00944439999999,"googleName":"Alvarado, Tab., Mexico","googleId":"ChIJfQMsxyfO7YURR65ZzcMaZ2o","types":["locality","political"]}
{"key":"1525634","name":"La Angostura","type":"city","country_code":"MX","country_name":"Mexico","region":"Veracruz","region_id":2534,"supports_region":true,"supports_city":true,"lat":22.3035656,"lng":-98.1341712,"googleName":"La Angostura, Ver., Mexico","googleId":"ChIJUdc9HPbd14URTuhCVpJEJIg","types":["locality","political"]}
{"key":"1559298","name":"Villa Allende","type":"city","country_code":"MX","country_name":"Mexico","region":"State of Mexico","region_id":2519,"supports_region":true,"supports_city":true,"lat":19.4028199,"lng":-100.147355,"googleName":"Villa Allende, Méx., Mexico","googleId":"ChIJwz-wV5Wb0oURDeeYQN_ESn8","types":["locality","political"]}
{"key":"1504087","name":"Angostura","type":"city","country_code":"MX","country_name":"Mexico","region":"San Luis Potosi","region_id":2528,"supports_region":true,"supports_city":true,"lat":22.2017689,"lng":-101.0103782,"googleName":"Angostura, 78117 San Luis, S.L.P., Mexico","googleId":"ChIJZRn8iKafKoQRzSUYrXHKdZk","types":["sublocality_level_1","sublocality","political"]}
{"key":"1554682","name":"Talpa de Allende","type":"city","country_code":"MX","country_name":"Mexico","region":"Jalisco","region_id":2518,"supports_region":true,"supports_city":true,"lat":20.3784149,"lng":-104.8191965,"googleName":"Talpa de Allende, Jalisco, Mexico","googleId":"ChIJgUKTZ5kcJIQRdVB8O2TgW7w","types":["locality","political"]}
{"key":"1508953","name":"Celaya","type":"city","country_code":"MX","country_name":"Mexico","region":"Sinaloa","region_id":2529,"supports_region":true,"supports_city":true,"lat":20.5306307,"lng":-100.812044,"googleName":"Sinaloa, Alameda, Celaya, Gto., Mexico","googleId":"EidTaW5hbG9hLCBBbGFtZWRhLCBDZWxheWEsIEd0by4sIE3DqXhpY28","types":["route"]}
{"key":"1507362","name":"Calvillo","type":"city","country_code":"MX","country_name":"Mexico","region":"Aguascalientes","region_id":2505,"supports_region":true,"supports_city":true,"lat":21.8760689,"lng":-102.3052276,"googleName":"Calvillo - Aguascalientes, Desarrollo Especial Zona de la Feria, Aguascalientes, Ags., Mexico","googleId":"El5DYWx2aWxsbyAtIEFndWFzY2FsaWVudGVzLCBEZXNhcnJvbGxvIEVzcGVjaWFsIFpvbmEgZGUgbGEgRmVyaWEsIEFndWFzY2FsaWVudGVzLCBBZ3MuLCBNw6l4aWNv","types":["route"]}
{"key":"1523976","name":"Ignacio Allende","type":"city","country_code":"MX","country_name":"Mexico","region":"Durango","region_id":2514,"supports_region":true,"supports_city":true,"lat":24.4752152,"lng":-103.9982696,"googleName":"Ignacio Allende, Dgo., Mexico","googleId":"ChIJAy6e_tDomoYREPkEzLA7IpI","types":["locality","political"]}
{"key":"1503676","name":"Altamira","type":"city","country_code":"MX","country_name":"Mexico","region":"Tamaulipas","region_id":2532,"supports_region":true,"supports_city":true,"lat":22.4077462,"lng":-97.92115550000001,"googleName":"Altamira, Tamaulipas, Mexico","googleId":"ChIJLfeZYBf914UR3PZ0PvgDlPk","types":["locality","political"]}
{"key":"1503748","name":"Alvarado","type":"city","country_code":"MX","country_name":"Mexico","region":"Tlaxcala","region_id":2533,"supports_region":true,"supports_city":true,"lat":19.321314,"lng":-98.3761972,"googleName":"Alvarado, Cerro Gordo, 90120 Villa Mariano Matamoros, Tlax., Mexico","googleId":"EkFBbHZhcmFkbywgQ2Vycm8gR29yZG8sIFZpbGxhIE1hcmlhbm8gTWF0YW1vcm9zLCBUbGF4Y2FsYSwgTcOpeGljbw","types":["route"]}
{"key":"1525058","name":"Josefino De Allende","type":"city","country_code":"MX","country_name":"Mexico","region":"Jalisco","region_id":2518,"supports_region":true,"supports_city":true,"lat":20.7202774,"lng":-102.0848186,"googleName":"Josefino de Allende, Jal., Mexico","googleId":"ChIJFaQ8EZtVKYQR1vEUVQp3t9c","types":["locality","political"]}
{"key":"1504342","name":"Arandas","type":"city","country_code":"MX","country_name":"Mexico","region":"Guanajuato","region_id":2515,"supports_region":true,"supports_city":true,"lat":20.7242442,"lng":-101.3732436,"googleName":"Arandas, Gto., Mexico","googleId":"ChIJ_YDEbkKAK4QR7sqHBiRT5es","types":["locality","political"]}
{"key":"1510070","name":"Chihuahua","type":"city","country_code":"MX","country_name":"Mexico","region":"Baja California","region_id":2506,"supports_region":true,"supports_city":true,"lat":32.5016713,"lng":-117.0507215,"googleName":"Chihuahua, 22620 Tijuana, B.C., Mexico","googleId":"ChIJo5BsocRJ2YARqQF_D7KhWyg","types":["sublocality_level_1","sublocality","political"]}
{"key":"1503684","name":"Altamirano","type":"city","country_code":"MX","country_name":"Mexico","region":"Tamaulipas","region_id":2532,"supports_region":true,"supports_city":true,"lat":22.4077462,"lng":-97.92115550000001,"googleName":"Altamira, Tamaulipas, Mexico","googleId":"ChIJLfeZYBf914UR3PZ0PvgDlPk","types":["locality","political"]}
{"key":"1503582","name":"Allende","type":"city","country_code":"MX","country_name":"Mexico","region":"Coahuila de Zaragoza","region_id":2511,"supports_region":true,"supports_city":true,"lat":28.34982329999999,"lng":-100.850791,"googleName":"Allende, Coahuila, Mexico","googleId":"ChIJoY86KoRO9YYRp2hYpLpDBiw","types":["locality","political"]}
{"key":"1503672","name":"Altamira","type":"city","country_code":"MX","country_name":"Mexico","region":"Durango","region_id":2514,"supports_region":true,"supports_city":true,"lat":25.0453318,"lng":-105.4192549,"googleName":"Altamira, Santiago Papasquiaro, Dgo., Mexico","googleId":"ChIJqQgrlg9ol4YRSYsDXDIeVWE","types":["sublocality_level_1","sublocality","political"]}
{"key":"1503680","name":"Altamirano","type":"city","country_code":"MX","country_name":"Mexico","region":"Chiapas","region_id":2509,"supports_region":true,"supports_city":true,"lat":16.7342989,"lng":-92.0362219,"googleName":"Altamirano, Chis., Mexico","googleId":"ChIJfeh4M5jF8oURx8IBsGM2McE","types":["locality","political"]}
{"key":"1550838","name":"San Miguel Chiconcuac","type":"city","country_code":"MX","country_name":"Mexico","region":"State of Mexico","region_id":2519,"supports_region":true,"supports_city":true,"lat":19.5586313,"lng":-98.8983221,"googleName":"San Miguel, Chiconcuac, Méx., Mexico","googleId":"ChIJ_RyhMpLo0YURiX67bVUlL5o","types":["sublocality_level_1","sublocality","political"]}
{"key":"1504090","name":"Angostura","type":"city","country_code":"MX","country_name":"Mexico","region":"Veracruz","region_id":2534,"supports_region":true,"supports_city":true,"lat":17.8572199,"lng":-95.29056,"googleName":"Angostura, Ver., Mexico","googleId":"ChIJzZ2uiBTxwYURugdJGO9mn9g","types":["locality","political"]}
{"key":"1541493","name":"Pozo Celaya","type":"city","country_code":"MX","country_name":"Mexico","region":"Sonora","region_id":2530,"supports_region":true,"supports_city":true,"lat":32.6378118,"lng":-115.4746557,"googleName":"Pasaje Celaya, Centro Cívico, Mexicali, B.C., Mexico","googleId":"EjZQYXNhamUgQ2VsYXlhLCBDZW50cm8gQ8OtdmljbywgTWV4aWNhbGksIEIuQy4sIE3DqXhpY28","types":["route"]}
{"key":"1523032","name":"Heroica Alvarado","type":"city","country_code":"MX","country_name":"Mexico","region":"Veracruz","region_id":2534,"supports_region":true,"supports_city":true,"lat":18.7707842,"lng":-95.7613909,"googleName":"Alvarado, Ver., Mexico","googleId":"ChIJq4_fijVTwoUR4XgfMzPQpVQ","types":["administrative_area_level_2","political"]}
{"key":"1559312","name":"Villa Choix","type":"city","country_code":"MX","country_name":"Mexico","region":"Sinaloa","region_id":2529,"supports_region":true,"supports_city":true,"lat":24.8413936,"lng":-107.4198256,"googleName":"Villa Choix, Colinas de La Rivera, Colinas de la Rivera, 80025 Culiacán Rosales, Sin., Mexico","googleId":"EkZWaWxsYSBDaG9peCwgQ29saW5hcyBkZSBsYSBSaXZlcmEsIEN1bGlhY8OhbiBSb3NhbGVzLCBTaW5hbG9hLCBNw6l4aWNv","types":["route"]}
{"key":"1504079","name":"Angostura","type":"city","country_code":"MX","country_name":"Mexico","region":"Chihuahua","region_id":2510,"supports_region":true,"supports_city":true,"lat":28.7884892,"lng":-106.1589364,"googleName":"Calle Rio Angostura, Chihuahua, Mexico","googleId":"EidDYWxsZSBSaW8gQW5nb3N0dXJhLCBDaGlodWFodWEsIE3DqXhpY28","types":["route"]}
{"key":"1504078","name":"Angostura","type":"city","country_code":"MX","country_name":"Mexico","region":"Chiapas","region_id":2509,"supports_region":true,"supports_city":true,"lat":16.432502,"lng":-92.71319299999999,"googleName":"Angostura, Chis., Mexico","googleId":"ChIJ5ZyxKRq0koUR8RzxTvbwCuQ","types":["locality","political"]}
{"key":"1510017","name":"Chiconcuac","type":"city","country_code":"MX","country_name":"Mexico","region":"Hidalgo","region_id":2517,"supports_region":true,"supports_city":true,"lat":19.55346819999999,"lng":-98.89693799999999,"googleName":"Hidalgo, San Pedro, 56270 Chiconcuac, Méx., Mexico","googleId":"Ei5IaWRhbGdvLCBTYW4gUGVkcm8sIENoaWNvbmN1YWMsIE3DqXguLCBNw6l4aWNv","types":["route"]}
{"key":"1503749","name":"Alvarado","type":"city","country_code":"MX","country_name":"Mexico","region":"Veracruz","region_id":2534,"supports_region":true,"supports_city":true,"lat":18.7696195,"lng":-95.758949,"googleName":"Alvarado, Ver., Mexico","googleId":"ChIJ3z7xWzZTwoURlTIFp7YSFyk","types":["locality","political"]}
{"key":"1510018","name":"Chiconcuac","type":"city","country_code":"MX","country_name":"Mexico","region":"State of Mexico","region_id":2519,"supports_region":true,"supports_city":true,"lat":19.5610249,"lng":-98.8995504,"googleName":"Chiconcuac de Juárez, State of Mexico, Mexico","googleId":"ChIJMWJ1yJPo0YURvaAOXCnY6ZM","types":["locality","political"]}
{"key":"1550853","name":"San Miguel de Allende","type":"city","country_code":"MX","country_name":"Mexico","region":"Guanajuato","region_id":2515,"supports_region":true,"supports_city":true,"lat":20.9144491,"lng":-100.745235,"googleName":"San Miguel de Allende, Guanajuato, Mexico","googleId":"ChIJD7xxmK9RK4QRpLAHHQMBMWU","types":["locality","political"]}
{"key":"1509127","name":"Cerro Azul","type":"city","country_code":"MX","country_name":"Mexico","region":"Hidalgo","region_id":2517,"supports_region":true,"supports_city":true,"lat":20.3376738,"lng":-99.30987259999999,"googleName":"Cerro Azul, Hgo., Mexico","googleId":"ChIJCe89U73b04URemUe8LPbewg","types":["locality","political"]}
{"key":"1504089","name":"Angostura","type":"city","country_code":"MX","country_name":"Mexico","region":"Sonora","region_id":2530,"supports_region":true,"supports_city":true,"lat":29.0819751,"lng":-110.925022,"googleName":"Angostura, El Ranchito, 83050 Hermosillo, Son., Mexico","googleId":"EjNBbmdvc3R1cmEsIEVsIFJhbmNoaXRvLCBIZXJtb3NpbGxvLCBTb25vcmEsIE3DqXhpY28","types":["route"]}
{"key":"1510074","name":"Chihuahua","type":"city","country_code":"MX","country_name":"Mexico","region":"Chihuahua","region_id":2510,"supports_region":true,"supports_city":true,"lat":28.6329957,"lng":-106.0691004,"googleName":"Chihuahua, Mexico","googleId":"ChIJM0BIXZ1E6oYRex3dBqen8bc","types":["locality","political"]}
{"key":"1503675","name":"Altamira","type":"city","country_code":"MX","country_name":"Mexico","region":"Sinaloa","region_id":2529,"supports_region":true,"supports_city":true,"lat":24.6254718,"lng":-107.2560506,"googleName":"Altamira, Sin., Mexico","googleId":"ChIJbfxtQz3VooYRRUVGlvmdnO8","types":["locality","political"]}
{"key":"1503589","name":"Allende","type":"city","country_code":"MX","country_name":"Mexico","region":"Tabasco","region_id":2531,"supports_region":true,"supports_city":true,"lat":17.9867939,"lng":-92.92217509999999,"googleName":"Calle Ignacio Allende, Centro Delegacion Uno, Villahermosa, Tab., Mexico","googleId":"EkxDYWxsZSBJZ25hY2lvIEFsbGVuZGUsIENlbnRybyBEZWxlZ2FjaW9uIFVubywgVmlsbGFoZXJtb3NhLCBUYWJhc2NvLCBNw6l4aWNv","types":["route"]}
{"key":"1534422","name":"Manlio Fabio Altamirano","type":"city","country_code":"MX","country_name":"Mexico","region":"Veracruz","region_id":2534,"supports_region":true,"supports_city":true,"lat":19.0940512,"lng":-96.33257909999999,"googleName":"Manlio Fabio Altamirano, Ver., Mexico","googleId":"ChIJZ6UATN2fxIUREdqwdbgGQN8","types":["locality","political"]}
{"key":"1504083","name":"Angostura","type":"city","country_code":"MX","country_name":"Mexico","region":"Guerrero","region_id":2516,"supports_region":true,"supports_city":true,"lat":16.9011791,"lng":-99.85088569999999,"googleName":"Angostura, Las Cruces, Acapulco, Gro., Mexico","googleId":"EjJBbmdvc3R1cmEsIExhcyBDcnVjZXMsIEFjYXB1bGNvLCBHdWVycmVybywgTcOpeGljbw","types":["route"]}
{"key":"1510928","name":"Ciudad Camargo","type":"city","country_code":"MX","country_name":"Mexico","region":"Chihuahua","region_id":2510,"supports_region":true,"supports_city":true,"lat":27.6763786,"lng":-105.166953,"googleName":"Camargo, Chihuahua, Mexico","googleId":"ChIJRfZv5iqslIYR9OoewMrk86Y","types":["locality","political"]}
{"key":"1525627","name":"La Angostura","type":"city","country_code":"MX","country_name":"Mexico","region":"Guanajuato","region_id":2515,"supports_region":true,"supports_city":true,"lat":20.2777024,"lng":-101.1097721,"googleName":"La Angostura, Gto., Mexico","googleId":"ChIJ72wSbjHsLIQRexpWpvAFI9o","types":["locality","political"]}
{"key":"1504080","name":"Angostura","type":"city","country_code":"MX","country_name":"Mexico","region":"Coahuila de Zaragoza","region_id":2511,"supports_region":true,"supports_city":true,"lat":25.3443496,"lng":-101.045014,"googleName":"Ejido Angostura, Saltillo, Coah., Mexico","googleId":"ChIJebHqSIpziIYRbEs0GZSAEuA","types":["sublocality_level_1","sublocality","political"]}
{"key":"1503085","name":"Aguascalientes City","type":"city","country_code":"MX","country_name":"Mexico","region":"Aguascalientes","region_id":2505,"supports_region":true,"supports_city":true,"lat":21.8852562,"lng":-102.2915677,"googleName":"Aguascalientes, Mexico","googleId":"ChIJ-9nkOhTsKYQRIFKcZ3hpAQQ","types":["locality","political"]}
{"key":"1509126","name":"Cerro Azul","type":"city","country_code":"MX","country_name":"Mexico","region":"Coahuila de Zaragoza","region_id":2511,"supports_region":true,"supports_city":true,"lat":25.4380825,"lng":-101.0199539,"googleName":"Cerro Azul, Oscar Flores Tapia Amp, 25146 Saltillo, Coah., Mexico","googleId":"ElNDZXJybyBBenVsLCBPc2NhciBGbG9yZXMgVGFwaWEgQW1wbGlhY2nDs24sIFNhbHRpbGxvLCBDb2FodWlsYSBkZSBaYXJhZ296YSwgTcOpeGljbw","types":["route"]}
{"key":"1503591","name":"Allende","type":"city","country_code":"MX","country_name":"Mexico","region":"Zacatecas","region_id":2536,"supports_region":true,"supports_city":true,"lat":23.7249,"lng":-102.264671,"googleName":"Allende, Zac., Mexico","googleId":"ChIJdZwwmKIIhIYRSiv6eu2Icss","types":["locality","political"]}
{"key":"1558740","name":"Valle De Allende","type":"city","country_code":"MX","country_name":"Mexico","region":"Chihuahua","region_id":2510,"supports_region":true,"supports_city":true,"lat":26.9371422,"lng":-105.3928344,"googleName":"Valle de Allende, Chihuahua, Mexico","googleId":"ChIJIeTM9jFnlIYR4u6YAlgntNo","types":["locality","political"]}
{"key":"1503586","name":"Allende","type":"city","country_code":"MX","country_name":"Mexico","region":"Puebla","region_id":2525,"supports_region":true,"supports_city":true,"lat":19.0044301,"lng":-98.2291563,"googleName":"Allende, Vicente Guerrero, 72470 Puebla, Pue., Mexico","googleId":"EjBBbGxlbmRlLCBWaWNlbnRlIEd1ZXJyZXJvLCBQdWVibGEsIFB1ZS4sIE3DqXhpY28","types":["route"]}
{"key":"1504088","name":"Angostura","type":"city","country_code":"MX","country_name":"Mexico","region":"Sinaloa","region_id":2529,"supports_region":true,"supports_city":true,"lat":25.3679709,"lng":-108.1591316,"googleName":"Angostura, Sinaloa, Mexico","googleId":"ChIJiUdwO4CBu4YRUjswyl_oOV4","types":["locality","political"]}
{"key":"1503583","name":"Allende","type":"city","country_code":"MX","country_name":"Mexico","region":"Hidalgo","region_id":2517,"supports_region":true,"supports_city":true,"lat":20.2696993,"lng":-98.9365735,"googleName":"Allende, Rojo Gómez, Actopan, Hgo., Mexico","googleId":"Ei9BbGxlbmRlLCBSb2pvIEfDs21leiwgQWN0b3BhbiwgSGlkYWxnbywgTcOpeGljbw","types":["route"]}
{"key":"1503673","name":"Altamira","type":"city","country_code":"MX","country_name":"Mexico","region":"Jalisco","region_id":2518,"supports_region":true,"supports_city":true,"lat":20.7128677,"lng":-103.3883338,"googleName":"Altamira, 45160 Zapopan, Jal., Mexico","googleId":"EiNBbHRhbWlyYSwgWmFwb3BhbiwgSmFsaXNjbywgTcOpeGljbw","types":["sublocality_level_1","sublocality","political"]}
{"key":"1503086","name":"Aguascalientes","type":"city","country_code":"MX","country_name":"Mexico","region":"Baja California","region_id":2506,"supports_region":true,"supports_city":true,"lat":32.6626756,"lng":-115.5017985,"googleName":"Aguascalientes, Pueblo Nuevo, Mexicali, B.C., Mexico","googleId":"EkBBZ3Vhc2NhbGllbnRlcywgUHVlYmxvIE51ZXZvLCBNZXhpY2FsaSwgQmFqYSBDYWxpZm9ybmlhLCBNw6l4aWNv","types":["route"]}
{"key":"1503584","name":"Allende","type":"city","country_code":"MX","country_name":"Mexico","region":"State of Mexico","region_id":2519,"supports_region":true,"supports_city":true,"lat":19.3987571,"lng":-99.0427046,"googleName":"Allende, Raul Romero, Nezahualcóyotl, Méx., Mexico","googleId":"Ej9BbGxlbmRlLCBSYXVsIFJvbWVybywgTmV6YWh1YWxjw7N5b3RsLCBTdGF0ZSBvZiBNZXhpY28sIE3DqXhpY28","types":["route"]}
{"key":"1504084","name":"Angostura","type":"city","country_code":"MX","country_name":"Mexico","region":"Jalisco","region_id":2518,"supports_region":true,"supports_city":true,"lat":20.7125155,"lng":-103.3131927,"googleName":"De La Angostura, Jardines de Santa Isabel, 44300 Guadalajara, Jal., Mexico","googleId":"EkhEZSBMYSBBbmdvc3R1cmEsIEphcmRpbmVzIGRlIFNhbnRhIElzYWJlbCwgR3VhZGFsYWphcmEsIEphbGlzY28sIE3DqXhpY28","types":["route"]}
{"key":"1503581","name":"Allende","type":"city","country_code":"MX","country_name":"Mexico","region":"Chihuahua","region_id":2510,"supports_region":true,"supports_city":true,"lat":28.40376479999999,"lng":-106.8701989,"googleName":"Allende, Zona Centro, 31500 Cd Cuauhtémoc, Chih., Mexico","googleId":"EjxBbGxlbmRlLCBab25hIENlbnRybywgQ2l1ZGFkIEN1YXVodMOpbW9jLCBDaGlodWFodWEsIE3DqXhpY28","types":["route"]}
{"key":"1504082","name":"Angostura","type":"city","country_code":"MX","country_name":"Mexico","region":"Guanajuato","region_id":2515,"supports_region":true,"supports_city":true,"lat":21.29272229999999,"lng":-100.5177566,"googleName":"Angostura, Vicente Guerrero, 37900 San Luis de la Paz, Gto., Mexico","googleId":"EkRBbmdvc3R1cmEsIFZpY2VudGUgR3VlcnJlcm8sIFNhbiBMdWlzIGRlIGxhIFBheiwgR3VhbmFqdWF0bywgTcOpeGljbw","types":["route"]}
{"key":"1503745","name":"Alvarado","type":"city","country_code":"MX","country_name":"Mexico","region":"Baja California","region_id":2506,"supports_region":true,"supports_city":true,"lat":31.866841,"lng":-116.6203576,"googleName":"Alvarado, Zona Centro, Ensenada, B.C., Mexico","googleId":"EjlBbHZhcmFkbywgWm9uYSBDZW50cm8sIEVuc2VuYWRhLCBCYWphIENhbGlmb3JuaWEsIE3DqXhpY28","types":["route"]}
{"key":"1503588","name":"Allende","type":"city","country_code":"MX","country_name":"Mexico","region":"San Luis Potosi","region_id":2528,"supports_region":true,"supports_city":true,"lat":22.1523369,"lng":-100.9769736,"googleName":"Allende, Centro Historico, 78000 San Luis, S.L.P., Mexico","googleId":"EjxBbGxlbmRlLCBDZW50cm8gSGlzdG9yaWNvLCBTYW4gTHVpcyBQb3Rvc8OtLCBTLkwuUC4sIE3DqXhpY28","types":["route"]}
{"key":"1503669","name":"Altamira","type":"city","country_code":"MX","country_name":"Mexico","region":"Chiapas","region_id":2509,"supports_region":true,"supports_city":true,"lat":15.5999999,"lng":-92.9166671,"googleName":"Altamira, Chis., Mexico","googleId":"ChIJfQOruOpakoUR-_2stPSnOWE","types":["locality","political"]}
{"key":"1559328","name":"Villa de allende","type":"city","country_code":"MX","country_name":"Mexico","region":"State of Mexico","region_id":2519,"supports_region":true,"supports_city":true,"lat":19.3760986,"lng":-100.1494399,"googleName":"Villa de Allende, Méx., Mexico","googleId":"ChIJ06sJ2neb0oURuK5RQVxgeqI","types":["administrative_area_level_2","political"]}
{"key":"1503685","name":"Altamirano","type":"city","country_code":"MX","country_name":"Mexico","region":"Veracruz","region_id":2534,"supports_region":true,"supports_city":true,"lat":22.0521245,"lng":-98.1803771,"googleName":"Ignacio Manuel Altamirano, Etiene, 93990 Pánuco, Ver., Mexico","googleId":"Ej1JZ25hY2lvIE1hbnVlbCBBbHRhbWlyYW5vLCBFdGllbmUsIFDDoW51Y28sIFZlcmFjcnV6LCBNw6l4aWNv","types":["route"]}
{"key":"1510929","name":"Ciudad Camargo","type":"city","country_code":"MX","country_name":"Mexico","region":"Tamaulipas","region_id":2532,"supports_region":true,"supports_city":true,"lat":26.3207342,"lng":-98.833519,"googleName":"Ciudad Camargo, Tamaulipas, Mexico","googleId":"ChIJBZHNRYhcZIYRFM45jCLcF8Y","types":["locality","political"]}
{"key":"1503590","name":"Allende","type":"city","country_code":"MX","country_name":"Mexico","region":"Veracruz","region_id":2534,"supports_region":true,"supports_city":true,"lat":18.1465313,"lng":-94.38221089999999,"googleName":"Allende, Ver., Mexico","googleId":"ChIJkSNkcvF46YURqbO_kuui3sY","types":["locality","political"]}
{"key":"1554000","name":"Simojovel De Allende","type":"city","country_code":"MX","country_name":"Mexico","region":"Chiapas","region_id":2509,"supports_region":true,"supports_city":true,"lat":17.1406084,"lng":-92.7155556,"googleName":"Simojovel de Allende, Chis., Mexico","googleId":"ChIJvQXI9Mhz7YUR2JNkKxGQ3b8","types":["locality","political"]}
{"key":"1503683","name":"Altamirano","type":"city","country_code":"MX","country_name":"Mexico","region":"State of Mexico","region_id":2519,"supports_region":true,"supports_city":true,"lat":19.2780865,"lng":-99.6459675,"googleName":"Altamirano, 50130 Toluca de Lerdo, Méx., Mexico","googleId":"ChIJo2JnBpCJzYURgC6dMDGrB4s","types":["sublocality_level_1","sublocality","political"]}
{"key":"1558189","name":"Tula de Allende","type":"city","country_code":"MX","country_name":"Mexico","region":"Hidalgo","region_id":2517,"supports_region":true,"supports_city":true,"lat":20.0535516,"lng":-99.33956359999999,"googleName":"Tula, Hgo., Mexico","googleId":"ChIJIzC5Gc_S04URTIs87m6DOe4","types":["locality","political"]}
{"key":"1504205","name":"Apaseo el Alto","type":"city","country_code":"MX","country_name":"Mexico","region":"Guanajuato","region_id":2515,"supports_region":true,"supports_city":true,"lat":20.4602715,"lng":-100.6224706,"googleName":"Apaseo el Alto, Guanajuato, Mexico","googleId":"ChIJ34sxrq20LIQRSx9ytqS2Nq8","types":["locality","political"]}
{"key":"1504722","name":"Asientos","type":"city","country_code":"MX","country_name":"Mexico","region":"Aguascalientes","region_id":2505,"supports_region":true,"supports_city":true,"lat":22.2390573,"lng":-102.0894438,"googleName":"Asientos, Ags., Mexico","googleId":"ChIJNdBqxVEAKoQRqXI-fdOzRWc","types":["administrative_area_level_2","political"]}
{"key":"1503680","name":"Altamirano","type":"city","country_code":"MX","country_name":"Mexico","region":"Chiapas","region_id":2509,"supports_region":true,"supports_city":true,"lat":16.7342989,"lng":-92.0362219,"googleName":"Altamirano, Chis., Mexico","googleId":"ChIJfeh4M5jF8oURx8IBsGM2McE","types":["locality","political"]}
{"key":"1503868","name":"Amatepec","type":"city","country_code":"MX","country_name":"Mexico","region":"Oaxaca","region_id":2524,"supports_region":true,"supports_city":true,"lat":17.2499905,"lng":-96.03331209999999,"googleName":"Amatepec, Oax., Mexico","googleId":"ChIJ1REBAQcfwYURiPJHpG2zhiQ","types":["locality","political"]}
{"key":"1509098","name":"Cerritos","type":"city","country_code":"MX","country_name":"Mexico","region":"Guanajuato","region_id":2515,"supports_region":true,"supports_city":true,"lat":20.8858333,"lng":-100.5983333,"googleName":"Cerritos, Gto., Mexico","googleId":"ChIJ7Wxh1sWs1IURtTmrhfuYPOU","types":["locality","political"]}
{"key":"1509676","name":"Charcas","type":"city","country_code":"MX","country_name":"Mexico","region":"Guanajuato","region_id":2515,"supports_region":true,"supports_city":true,"lat":21.35495,"lng":-99.936185,"googleName":"Charcas, Gto., Mexico","googleId":"ChIJ_Y6rb5r31IUR-zkSct5yD34","types":["locality","political"]}
{"key":"1509675","name":"Charcas","type":"city","country_code":"MX","country_name":"Mexico","region":"Chihuahua","region_id":2510,"supports_region":true,"supports_city":true,"lat":30.98333289999999,"lng":-106.3000001,"googleName":"Charcas, Chih., Mexico","googleId":"ChIJFTvnj_2S54YRwUix25awMsc","types":["locality","political"]}
{"key":"1502699","name":"Agostadero De Charcas","type":"city","country_code":"MX","country_name":"Mexico","region":"Guanajuato","region_id":2515,"supports_region":true,"supports_city":true,"lat":21.3552281,"lng":-99.9365399,"googleName":"Agostadero de Charcas, Gto., Mexico","googleId":"ChIJ-7pNZpr31IURNRtfqaxRc3M","types":["locality","political"]}
{"key":"1503869","name":"Amatepec","type":"city","country_code":"MX","country_name":"Mexico","region":"Veracruz","region_id":2534,"supports_region":true,"supports_city":true,"lat":20.7919399,"lng":-98.40749989999999,"googleName":"Amatepec, Ver., Mexico","googleId":"ChIJGailWx3U0IURKI-fG5Rr4Xk","types":["locality","political"]}
{"key":"1513847","name":"Dos Cerritos","type":"city","country_code":"MX","country_name":"Mexico","region":"Hidalgo","region_id":2517,"supports_region":true,"supports_city":true,"lat":20.2807509,"lng":-98.927984,"googleName":"Dos Cerritos, Actopan, Hgo., Mexico","googleId":"ChIJ40DNbPdx0YURAwC-WRbNDmU","types":["sublocality_level_1","sublocality","political"]}
{"key":"1515572","name":"El Cedral","type":"city","country_code":"MX","country_name":"Mexico","region":"Oaxaca","region_id":2524,"supports_region":true,"supports_city":true,"lat":18.015815,"lng":-96.066532,"googleName":"El Cedral, Oax., Mexico","googleId":"ChIJw2ajDCfew4URgeei7mmreO0","types":["locality","political"]}
{"key":"1509680","name":"Charcas","type":"city","country_code":"MX","country_name":"Mexico","region":"Zacatecas","region_id":2536,"supports_region":true,"supports_city":true,"lat":22.6830555,"lng":-102.3877777,"googleName":"Los Charcos, Zac., Mexico","googleId":"ChIJM67vHJU5goYRr6z4M1w3Mhw","types":["locality","political"]}
{"key":"1510921","name":"Ciudad Altamirano","type":"city","country_code":"MX","country_name":"Mexico","region":"Guerrero","region_id":2516,"supports_region":true,"supports_city":true,"lat":18.3578156,"lng":-100.6686262,"googleName":"Ciudad Altamirano, Guerrero, Mexico","googleId":"ChIJQYKduw4tM4QRgHduNNiDL6A","types":["locality","political"]}
{"key":"1508914","name":"Cedral","type":"city","country_code":"MX","country_name":"Mexico","region":"San Luis Potosi","region_id":2528,"supports_region":true,"supports_city":true,"lat":23.821569,"lng":-100.7234996,"googleName":"Cedral, San Luis Potosi, Mexico","googleId":"ChIJecnHpIRTh4YRj7URpq6hw_U","types":["locality","political"]}
{"key":"1503867","name":"Amatepec","type":"city","country_code":"MX","country_name":"Mexico","region":"State of Mexico","region_id":2519,"supports_region":true,"supports_city":true,"lat":18.6849,"lng":-100.1872135,"googleName":"Amatepec, State of Mexico, Mexico","googleId":"ChIJZTUAnREYzYUR1q-IX8qpGio","types":["administrative_area_level_2","political"]}
{"key":"1509679","name":"Charcas","type":"city","country_code":"MX","country_name":"Mexico","region":"Sinaloa","region_id":2529,"supports_region":true,"supports_city":true,"lat":23.2468984,"lng":-106.2069415,"googleName":"Charcas, El Roble, Sin., Mexico","googleId":"EiNDaGFyY2FzLCBFbCBSb2JsZSwgU2luYWxvYSwgTcOpeGljbw","types":["route"]}
{"key":"1508913","name":"Cedral","type":"city","country_code":"MX","country_name":"Mexico","region":"Jalisco","region_id":2518,"supports_region":true,"supports_city":true,"lat":20.7232589,"lng":-103.3971186,"googleName":"Calle 16 de Septiembre 313, República, 45146 Zapopan, Jal., Mexico","googleId":"ChIJLcARTaSvKIQRwIwjIKPydTs","types":["point_of_interest","establishment"]}
{"key":"1515569","name":"El Cedral","type":"city","country_code":"MX","country_name":"Mexico","region":"Guerrero","region_id":2516,"supports_region":true,"supports_city":true,"lat":18.041427,"lng":-101.0753968,"googleName":"Puente el Cedral II, Pandácuareo, Gro., Mexico","googleId":"EjRQdWVudGUgZWwgQ2VkcmFsIElJLCBQYW5kw6FjdWFyZW8sIEd1ZXJyZXJvLCBNw6l4aWNv","types":["route"]}
{"key":"1509678","name":"Charcas","type":"city","country_code":"MX","country_name":"Mexico","region":"San Luis Potosi","region_id":2528,"supports_region":true,"supports_city":true,"lat":23.1278889,"lng":-101.1136153,"googleName":"Charcas, San Luis Potosi, Mexico","googleId":"ChIJRyt9-gDxgIYRYJO06_50vLU","types":["locality","political"]}
{"key":"1503868","name":"Amatepec","type":"city","country_code":"MX","country_name":"Mexico","region":"Oaxaca","region_id":2524,"supports_region":true,"supports_city":true,"lat":17.2499905,"lng":-96.03331209999999,"googleName":"Amatepec, Oax., Mexico","googleId":"ChIJ1REBAQcfwYURiPJHpG2zhiQ","types":["locality","political"]}
{"key":"1509108","name":"Cerritos","type":"city","country_code":"MX","country_name":"Mexico","region":"Zacatecas","region_id":2536,"supports_region":true,"supports_city":true,"lat":22.0166669,"lng":-101.4000001,"googleName":"Cerritos, Zac., Mexico","googleId":"ChIJI0QCszpjKoQR-bhAhyVdbws","types":["locality","political"]}
{"key":"1508952","name":"Celaya","type":"city","country_code":"MX","country_name":"Mexico","region":"Guanajuato","region_id":2515,"supports_region":true,"supports_city":true,"lat":20.5279612,"lng":-100.8112885,"googleName":"Celaya, Guanajuato, Mexico","googleId":"ChIJdcZgHmS6LIQRRyd9mq3Tj5k","types":["locality","political"]}
{"key":"1550838","name":"San Miguel Chiconcuac","type":"city","country_code":"MX","country_name":"Mexico","region":"State of Mexico","region_id":2519,"supports_region":true,"supports_city":true,"lat":19.5586313,"lng":-98.8983221,"googleName":"San Miguel, Chiconcuac, Méx., Mexico","googleId":"ChIJ_RyhMpLo0YURiX67bVUlL5o","types":["sublocality_level_1","sublocality","political"]}
{"key":"1503867","name":"Amatepec","type":"city","country_code":"MX","country_name":"Mexico","region":"State of Mexico","region_id":2519,"supports_region":true,"supports_city":true,"lat":18.6849,"lng":-100.1872135,"googleName":"Amatepec, State of Mexico, Mexico","googleId":"ChIJZTUAnREYzYUR1q-IX8qpGio","types":["administrative_area_level_2","political"]}
{"key":"1502323","name":"Abasolo","type":"city","country_code":"MX","country_name":"Mexico","region":"Tabasco","region_id":2531,"supports_region":true,"supports_city":true,"lat":17.6611111,"lng":-92.5694444,"googleName":"Abasolo, Tab., Mexico","googleId":"ChIJvdyrlkqN7YURE2q7voZzISE","types":["locality","political"]}
{"key":"1508912","name":"Cedral","type":"city","country_code":"MX","country_name":"Mexico","region":"Coahuila de Zaragoza","region_id":2511,"supports_region":true,"supports_city":true,"lat":25.4432929,"lng":-100.9316663,"googleName":"Cedral, San Luis, 25298 Saltillo, Coah., Mexico","googleId":"EjlDZWRyYWwsIFNhbiBMdWlzLCBTYWx0aWxsbywgQ29haHVpbGEgZGUgWmFyYWdvemEsIE3DqXhpY28","types":["route"]}
{"key":"1508913","name":"Cedral","type":"city","country_code":"MX","country_name":"Mexico","region":"Jalisco","region_id":2518,"supports_region":true,"supports_city":true,"lat":20.7232589,"lng":-103.3971186,"googleName":"Calle 16 de Septiembre 313, República, 45146 Zapopan, Jal., Mexico","googleId":"ChIJLcARTaSvKIQRwIwjIKPydTs","types":["point_of_interest","establishment"]}
{"key":"1509581","name":"Chapala","type":"city","country_code":"MX","country_name":"Mexico","region":"Durango","region_id":2514,"supports_region":true,"supports_city":true,"lat":25.5753375,"lng":-103.524894,"googleName":"Fidel Velázquez, Gómez Palacio, Dgo., Mexico","googleId":"ChIJI_SZjRPYj4YRq4HTxgfS5Rw","types":["sublocality_level_1","sublocality","political"]}
{"key":"1509581","name":"Chapala","type":"city","country_code":"MX","country_name":"Mexico","region":"Durango","region_id":2514,"supports_region":true,"supports_city":true,"lat":25.5753375,"lng":-103.524894,"googleName":"Fidel Velázquez, Gómez Palacio, Dgo., Mexico","googleId":"ChIJI_SZjRPYj4YRq4HTxgfS5Rw","types":["sublocality_level_1","sublocality","political"]}
{"key":"1503067","name":"Agua Prieta","type":"city","country_code":"MX","country_name":"Mexico","region":"San Luis Potosi","region_id":2528,"supports_region":true,"supports_city":true,"lat":22.2577779,"lng":-101.1808329,"googleName":"Agua Prieta, S.L.P., Mexico","googleId":"ChIJG9A7qUMogIYRvTnA0z-bR7U","types":["locality","political"]}
{"key":"1504343","name":"Arandas","type":"city","country_code":"MX","country_name":"Mexico","region":"Jalisco","region_id":2518,"supports_region":true,"supports_city":true,"lat":20.705519,"lng":-102.346916,"googleName":"Arandas, Jalisco, Mexico","googleId":"ChIJJYH6JHdMKYQRhhTaCscOcQE","types":["locality","political"]}
{"key":"1508016","name":"Candelaria","type":"city","country_code":"MX","country_name":"Mexico","region":"Hidalgo","region_id":2517,"supports_region":true,"supports_city":true,"lat":21.0848651,"lng":-98.4044277,"googleName":"La Candelaria, Hgo., Mexico","googleId":"ChIJMUSEYwQm14UR8mwS1wALlns","types":["locality","political"]}
{"key":"1502399","name":"Acalita De Ameca","type":"city","country_code":"MX","country_name":"Mexico","region":"Zacatecas","region_id":2536,"supports_region":true,"supports_city":true,"lat":22.9030555,"lng":-104.09,"googleName":"Acatita de Ameca, Zac., Mexico","googleId":"ChIJcTkhITDlnIYRWFFQIvsDtGo","types":["locality","political"]}
{"key":"1502322","name":"Abasolo","type":"city","country_code":"MX","country_name":"Mexico","region":"Oaxaca","region_id":2524,"supports_region":true,"supports_city":true,"lat":17.0644027,"lng":-96.72202349999999,"googleName":"Calle de Mariano Abasolo, RUTA INDEPENDENCIA, Centro, Oaxaca, Oax., Mexico","googleId":"EiZBYmFzb2xvLCBDZW50cm8sIE9heGFjYSwgT2F4LiwgTcOpeGljbw","types":["route"]}
{"key":"1503915","name":"Ameca","type":"city","country_code":"MX","country_name":"Mexico","region":"Hidalgo","region_id":2517,"supports_region":true,"supports_city":true,"lat":21.2480824,"lng":-98.92996389999999,"googleName":"La Ameca, Hgo., Mexico","googleId":"ChIJB2MtJwSW1oURg30OKO2Ce0I","types":["locality","political"]}
{"key":"1532571","name":"Los Cerritos","type":"city","country_code":"MX","country_name":"Mexico","region":"Jalisco","region_id":2518,"supports_region":true,"supports_city":true,"lat":20.7357657,"lng":-103.343207,"googleName":"Los Cerritos, 45190 Zapopan, Jal., Mexico","googleId":"ChIJY_gEhT2wKIQRAraP2P26J9w","types":["sublocality_level_1","sublocality","political"]}
{"key":"1553471","name":"San Vicente Banderillas","type":"city","country_code":"MX","country_name":"Mexico","region":"San Luis Potosi","region_id":2528,"supports_region":true,"supports_city":true,"lat":23.3355559,"lng":-102.1,"googleName":"San Vicente Banderillas, S.L.P., Mexico","googleId":"ChIJL1Dfb0zgg4YRBaGor-zK3tU","types":["locality","political"]}
{"key":"1503971","name":"Amozoc","type":"city","country_code":"MX","country_name":"Mexico","region":"Puebla","region_id":2525,"supports_region":true,"supports_city":true,"lat":19.043829,"lng":-98.0437894,"googleName":"Amozoc de Mota, Puebla, Mexico","googleId":"ChIJc9x-rXzrz4URm6348VpfMYk","types":["locality","political"]}
{"key":"1509111","name":"Cerritos De Bernal","type":"city","country_code":"MX","country_name":"Mexico","region":"San Luis Potosi","region_id":2528,"supports_region":true,"supports_city":true,"lat":23.3566669,"lng":-101.5005559,"googleName":"Cerritos de Bernal, S.L.P., Mexico","googleId":"ChIJGXuxvJUigYYRAoBqP-zcWHk","types":["locality","political"]}
{"key":"1509589","name":"Chapalapa","type":"city","country_code":"MX","country_name":"Mexico","region":"Guerrero","region_id":2516,"supports_region":true,"supports_city":true,"lat":16.8073766,"lng":-98.4581842,"googleName":"Chacalapa, Gro., Mexico","googleId":"ChIJl4VbvRRLyIURiUEBkrwElR4","types":["locality","political"]}
{"key":"1541493","name":"Pozo Celaya","type":"city","country_code":"MX","country_name":"Mexico","region":"Sonora","region_id":2530,"supports_region":true,"supports_city":true,"lat":32.6378118,"lng":-115.4746557,"googleName":"Pasaje Celaya, Centro Cívico, Mexicali, B.C., Mexico","googleId":"EjZQYXNhamUgQ2VsYXlhLCBDZW50cm8gQ8OtdmljbywgTWV4aWNhbGksIEIuQy4sIE3DqXhpY28","types":["route"]}
{"key":"1547704","name":"San Antonio Banderillas","type":"city","country_code":"MX","country_name":"Mexico","region":"San Luis Potosi","region_id":2528,"supports_region":true,"supports_city":true,"lat":23.3178098,"lng":-102.1291905,"googleName":"San Antonio Banderillas, S.L.P., Mexico","googleId":"ChIJ8UWBBfLgg4YRkM55hWnDNTc","types":["locality","political"]}
{"key":"1509582","name":"Chapala","type":"city","country_code":"MX","country_name":"Mexico","region":"Jalisco","region_id":2518,"supports_region":true,"supports_city":true,"lat":20.30515759999999,"lng":-103.1846016,"googleName":"Chapala, Jalisco, Mexico","googleId":"ChIJt0wfd7FAL4QRU3_YZxtywXM","types":["locality","political"]}
{"key":"1502394","name":"Acala","type":"city","country_code":"MX","country_name":"Mexico","region":"Veracruz","region_id":2534,"supports_region":true,"supports_city":true,"lat":21.2363754,"lng":-97.61514989999999,"googleName":"Acala, Ver., Mexico","googleId":"ChIJqwLjdiHm2YUR0QO7M91RLr4","types":["locality","political"]}
{"key":"1502319","name":"Abasolo","type":"city","country_code":"MX","country_name":"Mexico","region":"Durango","region_id":2514,"supports_region":true,"supports_city":true,"lat":25.3108333,"lng":-104.655,"googleName":"Abasolo, Dgo., Mexico","googleId":"ChIJLd7BgKjqkIYRrFgdMn0HTt0","types":["locality","political"]}
{"key":"1509589","name":"Chapalapa","type":"city","country_code":"MX","country_name":"Mexico","region":"Guerrero","region_id":2516,"supports_region":true,"supports_city":true,"lat":16.8073766,"lng":-98.4581842,"googleName":"Chacalapa, Gro., Mexico","googleId":"ChIJl4VbvRRLyIURiUEBkrwElR4","types":["locality","political"]}
{"key":"1502394","name":"Acala","type":"city","country_code":"MX","country_name":"Mexico","region":"Veracruz","region_id":2534,"supports_region":true,"supports_city":true,"lat":21.2363754,"lng":-97.61514989999999,"googleName":"Acala, Ver., Mexico","googleId":"ChIJqwLjdiHm2YUR0QO7M91RLr4","types":["locality","political"]}
{"key":"1503065","name":"Agua Prieta","type":"city","country_code":"MX","country_name":"Mexico","region":"Chiapas","region_id":2509,"supports_region":true,"supports_city":true,"lat":15.219225,"lng":-92.3505833,"googleName":"Agua Prieta, Chis., Mexico","googleId":"ChIJLbHwoA76jYURv9y_ip_9ZOs","types":["locality","political"]}
{"key":"1509884","name":"Chiautempan","type":"city","country_code":"MX","country_name":"Mexico","region":"Tlaxcala","region_id":2533,"supports_region":true,"supports_city":true,"lat":19.3125811,"lng":-98.191238,"googleName":"Chiautempan, Tlaxcala, Mexico","googleId":"ChIJRTpTkZLez4UR40kIczErJt0","types":["locality","political"]}
{"key":"1508025","name":"Candelaria Loxicha","type":"city","country_code":"MX","country_name":"Mexico","region":"Oaxaca","region_id":2524,"supports_region":true,"supports_city":true,"lat":15.9262377,"lng":-96.491428,"googleName":"Candelaria Loxicha, Oaxaca, Mexico","googleId":"ChIJqbnpcfnMuIURI7Iyh4wpddY","types":["locality","political"]}
{"key":"1508018","name":"Candelaria","type":"city","country_code":"MX","country_name":"Mexico","region":"Oaxaca","region_id":2524,"supports_region":true,"supports_city":true,"lat":16.1833223,"lng":-95.9500027,"googleName":"Candelaria, Oax., Mexico","googleId":"ChIJgaMdt49uv4UR08b5xevkpco","types":["locality","political"]}
{"key":"1502396","name":"Acalapa","type":"city","country_code":"MX","country_name":"Mexico","region":"Puebla","region_id":2525,"supports_region":true,"supports_city":true,"lat":20.3173741,"lng":-98.091686,"googleName":"Acalapa, Pue., Mexico","googleId":"ChIJcztyTguN0IURcBSxA83ic64","types":["locality","political"]}
{"key":"1508011","name":"Candelaria","type":"city","country_code":"MX","country_name":"Mexico","region":"Campeche","region_id":2508,"supports_region":true,"supports_city":true,"lat":18.1859294,"lng":-91.04313669999999,"googleName":"Candelaria Municipality, Campeche, Mexico","googleId":"ChIJv7pgi3Wl9oUReH3lmx6__RU","types":["administrative_area_level_2","political"]}
{"key":"1510403","name":"Choix","type":"city","country_code":"MX","country_name":"Mexico","region":"Sinaloa","region_id":2529,"supports_region":true,"supports_city":true,"lat":26.7087657,"lng":-108.3245451,"googleName":"Choix, Sinaloa, Mexico","googleId":"ChIJwRwNMVYnuYYR-wRFYA9R9Hg","types":["locality","political"]}
{"key":"1551857","name":"Santa Ana Chiautempan","type":"city","country_code":"MX","country_name":"Mexico","region":"Tlaxcala","region_id":2533,"supports_region":true,"supports_city":true,"lat":19.3125811,"lng":-98.191238,"googleName":"Chiautempan, Tlaxcala, Mexico","googleId":"ChIJRTpTkZLez4UR40kIczErJt0","types":["locality","political"]}
{"key":"1503920","name":"Amecameca","type":"city","country_code":"MX","country_name":"Mexico","region":"State of Mexico","region_id":2519,"supports_region":true,"supports_city":true,"lat":19.1252361,"lng":-98.76711309999999,"googleName":"Amecameca, State of Mexico, Mexico","googleId":"ChIJf94CI6E7zoURAGPlwqPtKyw","types":["administrative_area_level_2","political"]}
{"key":"1502396","name":"Acalapa","type":"city","country_code":"MX","country_name":"Mexico","region":"Puebla","region_id":2525,"supports_region":true,"supports_city":true,"lat":20.3173741,"lng":-98.091686,"googleName":"Acalapa, Pue., Mexico","googleId":"ChIJcztyTguN0IURcBSxA83ic64","types":["locality","political"]}
{"key":"1509586","name":"Chapala","type":"city","country_code":"MX","country_name":"Mexico","region":"Sinaloa","region_id":2529,"supports_region":true,"supports_city":true,"lat":24.4458333,"lng":-106.97,"googleName":"Chapala, Sin., Mexico","googleId":"ChIJ1SN53P3GooYR5iWFyV_PUxI","types":["locality","political"]}
{"key":"1502919","name":"Agua Dulce","type":"city","country_code":"MX","country_name":"Mexico","region":"Veracruz","region_id":2534,"supports_region":true,"supports_city":true,"lat":18.1425936,"lng":-94.1436033,"googleName":"Agua Dulce, Ver., Mexico","googleId":"ChIJIZvLN3hk6YUR0n6Kqgb0iKE","types":["locality","political"]}
{"key":"1509092","name":"Cerritos Blancos","type":"city","country_code":"MX","country_name":"Mexico","region":"Guanajuato","region_id":2515,"supports_region":true,"supports_city":true,"lat":20.2370298,"lng":-101.9012919,"googleName":"Cerritos Blancos, Gto., Mexico","googleId":"ChIJ-5ZbwjkjLIQRgH5_AVvoOR4","types":["locality","political"]}
{"key":"1504502","name":"Arriaga Municipality","type":"city","country_code":"MX","country_name":"Mexico","region":"Chiapas","region_id":2509,"supports_region":true,"supports_city":true,"lat":16.2371385,"lng":-93.8986279,"googleName":"Arriaga, Chis., Mexico","googleId":"ChIJXVE4RpGklIURnVaeiww6E8Q","types":["locality","political"]}
{"key":"1503972","name":"Amozoc De Mota","type":"city","country_code":"MX","country_name":"Mexico","region":"Puebla","region_id":2525,"supports_region":true,"supports_city":true,"lat":19.043829,"lng":-98.0437894,"googleName":"Amozoc de Mota, Puebla, Mexico","googleId":"ChIJc9x-rXzrz4URm6348VpfMYk","types":["locality","political"]}
{"key":"1553471","name":"San Vicente Banderillas","type":"city","country_code":"MX","country_name":"Mexico","region":"San Luis Potosi","region_id":2528,"supports_region":true,"supports_city":true,"lat":23.3355559,"lng":-102.1,"googleName":"San Vicente Banderillas, S.L.P., Mexico","googleId":"ChIJL1Dfb0zgg4YRBaGor-zK3tU","types":["locality","political"]}
{"key":"1502919","name":"Agua Dulce","type":"city","country_code":"MX","country_name":"Mexico","region":"Veracruz","region_id":2534,"supports_region":true,"supports_city":true,"lat":18.1425936,"lng":-94.1436033,"googleName":"Agua Dulce, Ver., Mexico","googleId":"ChIJIZvLN3hk6YUR0n6Kqgb0iKE","types":["locality","political"]}
{"key":"1507344","name":"Calpulalpan","type":"city","country_code":"MX","country_name":"Mexico","region":"Tlaxcala","region_id":2533,"supports_region":true,"supports_city":true,"lat":19.5850377,"lng":-98.56660769999999,"googleName":"Calpulalpan, Tlaxcala, Mexico","googleId":"ChIJnWA96tjN0YURURberWA0WmQ","types":["locality","political"]}
{"key":"1549854","name":"San Juan Amecac","type":"city","country_code":"MX","country_name":"Mexico","region":"Puebla","region_id":2525,"supports_region":true,"supports_city":true,"lat":18.8358058,"lng":-98.6584244,"googleName":"San Juan Amecac, Pue., Mexico","googleId":"ChIJF5EPE4dPzoURONkEDOdLfEA","types":["locality","political"]}
{"key":"1507342","name":"Calpulalpan","type":"city","country_code":"MX","country_name":"Mexico","region":"State of Mexico","region_id":2519,"supports_region":true,"supports_city":true,"lat":20.05960989999999,"lng":-99.6265031,"googleName":"Calpulalpan, Méx., Mexico","googleId":"ChIJQ9ElEFFL0oUR1jjQVmlVg5E","types":["locality","political"]}
{"key":"1509675","name":"Charcas","type":"city","country_code":"MX","country_name":"Mexico","region":"Chihuahua","region_id":2510,"supports_region":true,"supports_city":true,"lat":30.98333289999999,"lng":-106.3000001,"googleName":"Charcas, Chih., Mexico","googleId":"ChIJFTvnj_2S54YRwUix25awMsc","types":["locality","political"]}
{"key":"1550566","name":"San Marcos Arteaga","type":"city","country_code":"MX","country_name":"Mexico","region":"Oaxaca","region_id":2524,"supports_region":true,"supports_city":true,"lat":17.719796,"lng":-97.86098319999999,"googleName":"San Marcos Arteaga, Oaxaca, Mexico","googleId":"ChIJ-bPk47moyIURhdH_LryJmck","types":["locality","political"]}
{"key":"1509104","name":"Cerritos","type":"city","country_code":"MX","country_name":"Mexico","region":"San Luis Potosi","region_id":2528,"supports_region":true,"supports_city":true,"lat":22.4321301,"lng":-100.2836708,"googleName":"Cerritos, San Luis Potosi, Mexico","googleId":"ChIJl-QK6Rjzf4YR-cYLYSB9XcA","types":["locality","political"]}
{"key":"1502393","name":"Acala Municipality","type":"city","country_code":"MX","country_name":"Mexico","region":"Chiapas","region_id":2509,"supports_region":true,"supports_city":true,"lat":16.5534979,"lng":-92.80694559999999,"googleName":"Acala, Chis., Mexico","googleId":"ChIJjWC8A7007YURMFfGTv36AQQ","types":["administrative_area_level_2","locality","political"]}
{"key":"1551291","name":"San Pedro Atlixco","type":"city","country_code":"MX","country_name":"Mexico","region":"Puebla","region_id":2525,"supports_region":true,"supports_city":true,"lat":18.9805554,"lng":-98.4769444,"googleName":"San Pedro Atlixco, Pue., Mexico","googleId":"ChIJ8TY5N061z4URnh9OBhwqWHI","types":["locality","political"]}
{"key":"1515570","name":"El Cedral","type":"city","country_code":"MX","country_name":"Mexico","region":"Hidalgo","region_id":2517,"supports_region":true,"supports_city":true,"lat":20.1817133,"lng":-98.7474111,"googleName":"Carretera Estanzuela-Mineral del Chico S/N, Barrio Rincón Grande, 42120 La Estanzuela, Hgo., Mexico","googleId":"ChIJXy8pOWAJ0YURTN3Dhq_bmNg","types":["premise","park","point_of_interest","establishment"]}
{"key":"1503737","name":"Altotonga","type":"city","country_code":"MX","country_name":"Mexico","region":"Veracruz","region_id":2534,"supports_region":true,"supports_city":true,"lat":19.7661213,"lng":-97.2455952,"googleName":"Altotonga, Ver., Mexico","googleId":"ChIJFaMymhfd2oURuow8VmX7Qag","types":["locality","political"]}
{"key":"1502393","name":"Acala Municipality","type":"city","country_code":"MX","country_name":"Mexico","region":"Chiapas","region_id":2509,"supports_region":true,"supports_city":true,"lat":16.5534979,"lng":-92.80694559999999,"googleName":"Acala, Chis., Mexico","googleId":"ChIJjWC8A7007YURMFfGTv36AQQ","types":["administrative_area_level_2","locality","political"]}
{"key":"1525131","name":"Joya De Calvillo","type":"city","country_code":"MX","country_name":"Mexico","region":"Guanajuato","region_id":2515,"supports_region":true,"supports_city":true,"lat":20.7497222,"lng":-101.6075,"googleName":"La Joya de Calvillo, Gto., Mexico","googleId":"ChIJH1lvs3iJK4QRuYMZvaAxzKc","types":["locality","political"]}
{"key":"1510864","name":"Cintalapa de Figueroa","type":"city","country_code":"MX","country_name":"Mexico","region":"Chiapas","region_id":2509,"supports_region":true,"supports_city":true,"lat":16.6841549,"lng":-93.72827690000001,"googleName":"Cintalapa de Figueroa, Chis., Mexico","googleId":"ChIJMzLMTYCo7IURaMaotX7zNaI","types":["locality","political"]}
{"key":"1524881","name":"Jilotepec De Abasolo","type":"city","country_code":"MX","country_name":"Mexico","region":"State of Mexico","region_id":2519,"supports_region":true,"supports_city":true,"lat":19.9524157,"lng":-99.53261669999999,"googleName":"Jilotepec de Abasolo, State of Mexico, Mexico","googleId":"ChIJI8mB-yc00oURPOZnm79KXtk","types":["administrative_area_level_2","political"]}
{"key":"1503919","name":"Amecac","type":"city","country_code":"MX","country_name":"Mexico","region":"Puebla","region_id":2525,"supports_region":true,"supports_city":true,"lat":18.8333934,"lng":-98.5985715,"googleName":"A San Juan Amecac, San Lucas Tulcingo, Pue., Mexico","googleId":"EjZBIFNhbiBKdWFuIEFtZWNhYywgU2FuIEx1Y2FzIFR1bGNpbmdvLCBQdWVibGEsIE3DqXhpY28","types":["route"]}
{"key":"1503737","name":"Altotonga","type":"city","country_code":"MX","country_name":"Mexico","region":"Veracruz","region_id":2534,"supports_region":true,"supports_city":true,"lat":19.7661213,"lng":-97.2455952,"googleName":"Altotonga, Ver., Mexico","googleId":"ChIJFaMymhfd2oURuow8VmX7Qag","types":["locality","political"]}
{"key":"1503916","name":"Ameca","type":"city","country_code":"MX","country_name":"Mexico","region":"Jalisco","region_id":2518,"supports_region":true,"supports_city":true,"lat":20.5476292,"lng":-104.0466547,"googleName":"Ameca, Jalisco, Mexico","googleId":"ChIJgVBlE4nWJYQR-bmim_fbigY","types":["administrative_area_level_2","locality","political"]}
{"key":"1509101","name":"Cerritos","type":"city","country_code":"MX","country_name":"Mexico","region":"Nayarit","region_id":2522,"supports_region":true,"supports_city":true,"lat":21.7812056,"lng":-105.2718688,"googleName":"Cerritos, Nay., Mexico","googleId":"ChIJH9vpA0qkIIQRXl-94tqRbcI","types":["locality","political"]}
{"key":"1502317","name":"Abasolo","type":"city","country_code":"MX","country_name":"Mexico","region":"Chiapas","region_id":2509,"supports_region":true,"supports_city":true,"lat":16.8207072,"lng":-92.21628820000001,"googleName":"Abasolo, Chis., Mexico","googleId":"ChIJzagChcm48oURUgRB0_ZWkHo","types":["locality","political"]}
{"key":"1509586","name":"Chapala","type":"city","country_code":"MX","country_name":"Mexico","region":"Sinaloa","region_id":2529,"supports_region":true,"supports_city":true,"lat":24.4458333,"lng":-106.97,"googleName":"Chapala, Sin., Mexico","googleId":"ChIJ1SN53P3GooYR5iWFyV_PUxI","types":["locality","political"]}
{"key":"1504503","name":"Arriaga","type":"city","country_code":"MX","country_name":"Mexico","region":"Coahuila de Zaragoza","region_id":2511,"supports_region":true,"supports_city":true,"lat":25.5426072,"lng":-103.4413071,"googleName":"Arriaga, Segundo de Cobián Centro, 27000 Torreón, Coah., Mexico","googleId":"EktBcnJpYWdhLCBTZWd1bmRvIGRlIENvYmnDoW4gQ2VudHJvLCBUb3JyZcOzbiwgQ29haHVpbGEgZGUgWmFyYWdvemEsIE3DqXhpY28","types":["route"]}
{"key":"1509679","name":"Charcas","type":"city","country_code":"MX","country_name":"Mexico","region":"Sinaloa","region_id":2529,"supports_region":true,"supports_city":true,"lat":23.2468984,"lng":-106.2069415,"googleName":"Charcas, El Roble, Sin., Mexico","googleId":"EiNDaGFyY2FzLCBFbCBSb2JsZSwgU2luYWxvYSwgTcOpeGljbw","types":["route"]}
{"key":"1528276","name":"La Mesa Del Cerro Azul","type":"city","country_code":"MX","country_name":"Mexico","region":"Guerrero","region_id":2516,"supports_region":true,"supports_city":true,"lat":17.739322,"lng":-100.607004,"googleName":"La Mesa del Cerro Azul, Gro., Mexico","googleId":"ChIJn0LeN0ZVy4URvYYQq-9iuZg","types":["locality","political"]}
{"key":"1504342","name":"Arandas","type":"city","country_code":"MX","country_name":"Mexico","region":"Guanajuato","region_id":2515,"supports_region":true,"supports_city":true,"lat":20.7242442,"lng":-101.3732436,"googleName":"Arandas, Gto., Mexico","googleId":"ChIJ_YDEbkKAK4QR7sqHBiRT5es","types":["locality","political"]}
{"key":"1509680","name":"Charcas","type":"city","country_code":"MX","country_name":"Mexico","region":"Zacatecas","region_id":2536,"supports_region":true,"supports_city":true,"lat":22.6830555,"lng":-102.3877777,"googleName":"Los Charcos, Zac., Mexico","googleId":"ChIJM67vHJU5goYRr6z4M1w3Mhw","types":["locality","political"]}
{"key":"1547704","name":"San Antonio Banderillas","type":"city","country_code":"MX","country_name":"Mexico","region":"San Luis Potosi","region_id":2528,"supports_region":true,"supports_city":true,"lat":23.3178098,"lng":-102.1291905,"googleName":"San Antonio Banderillas, S.L.P., Mexico","googleId":"ChIJ8UWBBfLgg4YRkM55hWnDNTc","types":["locality","political"]}
{"key":"1514062","name":"Ejido Abasolo","type":"city","country_code":"MX","country_name":"Mexico","region":"Tamaulipas","region_id":2532,"supports_region":true,"supports_city":true,"lat":24.0593289,"lng":-98.37716329999999,"googleName":"Abasolo, Tamaulipas, Mexico","googleId":"ChIJBfJOMc8oeoYRFCBxlGu4B8Q","types":["locality","political"]}
{"key":"1542859","name":"Ranchito Cerro Azul","type":"city","country_code":"MX","country_name":"Mexico","region":"Tamaulipas","region_id":2532,"supports_region":true,"supports_city":true,"lat":26.118451,"lng":-99.043089,"googleName":"Ranchito Cerro Azul, Tamps., Mexico","googleId":"ChIJ1ZIsIZGHZIYRMEf-P40A7HY","types":["locality","political"]}
{"key":"1502318","name":"Abasolo","type":"city","country_code":"MX","country_name":"Mexico","region":"Coahuila de Zaragoza","region_id":2511,"supports_region":true,"supports_city":true,"lat":25.4313285,"lng":-100.9862902,"googleName":"Calle Mariano Abasolo, Topochico, Saltillo, Coah., Mexico","googleId":"EklDYWxsZSBNYXJpYW5vIEFiYXNvbG8sIFRvcG9jaGljbywgU2FsdGlsbG8sIENvYWh1aWxhIGRlIFphcmFnb3phLCBNw6l4aWNv","types":["route"]}
{"key":"1507342","name":"Calpulalpan","type":"city","country_code":"MX","country_name":"Mexico","region":"State of Mexico","region_id":2519,"supports_region":true,"supports_city":true,"lat":20.05960989999999,"lng":-99.6265031,"googleName":"Calpulalpan, Méx., Mexico","googleId":"ChIJQ9ElEFFL0oUR1jjQVmlVg5E","types":["locality","political"]}
{"key":"1507343","name":"Calpulalpan","type":"city","country_code":"MX","country_name":"Mexico","region":"Oaxaca","region_id":2524,"supports_region":true,"supports_city":true,"lat":17.3040094,"lng":-96.44701189999999,"googleName":"Capulalpam de Méndez, Oaxaca, Mexico","googleId":"ChIJx660xHTTxoURFUFd7zHvZVE","types":["locality","political"]}
{"key":"1502920","name":"Agua Dulce","type":"city","country_code":"MX","country_name":"Mexico","region":"Zacatecas","region_id":2536,"supports_region":true,"supports_city":true,"lat":24.4616666,"lng":-101.0566666,"googleName":"Progreso, Zac., Mexico","googleId":"ChIJU4KYuRwKh4YRPl7Cb3T_LXc","types":["locality","political"]}
{"key":"1509129","name":"Cerro Azul","type":"city","country_code":"MX","country_name":"Mexico","region":"Puebla","region_id":2525,"supports_region":true,"supports_city":true,"lat":19.0406534,"lng":-98.1320417,"googleName":"Cerro Azul, Amaluqilla, Puebla, Pue., Mexico","googleId":"Ei1DZXJybyBBenVsLCBBbWFsdXFpbGxhLCBQdWVibGEsIFB1ZS4sIE3DqXhpY28","types":["route"]}
{"key":"1503869","name":"Amatepec","type":"city","country_code":"MX","country_name":"Mexico","region":"Veracruz","region_id":2534,"supports_region":true,"supports_city":true,"lat":20.7919399,"lng":-98.40749989999999,"googleName":"Amatepec, Ver., Mexico","googleId":"ChIJGailWx3U0IURKI-fG5Rr4Xk","types":["locality","political"]}
{"key":"1515572","name":"El Cedral","type":"city","country_code":"MX","country_name":"Mexico","region":"Oaxaca","region_id":2524,"supports_region":true,"supports_city":true,"lat":18.015815,"lng":-96.066532,"googleName":"El Cedral, Oax., Mexico","googleId":"ChIJw2ajDCfew4URgeei7mmreO0","types":["locality","political"]}
{"key":"1507364","name":"Calvillo","type":"city","country_code":"MX","country_name":"Mexico","region":"Guanajuato","region_id":2515,"supports_region":true,"supports_city":true,"lat":21.1133333,"lng":-101.1330555,"googleName":"Calvillo, Gto., Mexico","googleId":"ChIJ3VeDsM4SK4QRFju_z7Lvru4","types":["locality","political"]}
{"key":"1503866","name":"Amatepec","type":"city","country_code":"MX","country_name":"Mexico","region":"Guerrero","region_id":2516,"supports_region":true,"supports_city":true,"lat":16.9802777,"lng":-99.5080555,"googleName":"Amatepec, Gro., Mexico","googleId":"ChIJ8T0RctE1yoURjawirNT-LjM","types":["locality","political"]}
{"key":"1503866","name":"Amatepec","type":"city","country_code":"MX","country_name":"Mexico","region":"Guerrero","region_id":2516,"supports_region":true,"supports_city":true,"lat":16.9802777,"lng":-99.5080555,"googleName":"Amatepec, Gro., Mexico","googleId":"ChIJ8T0RctE1yoURjawirNT-LjM","types":["locality","political"]}
{"key":"1504187","name":"Apanquezalco","type":"city","country_code":"MX","country_name":"Mexico","region":"Morelos","region_id":2521,"supports_region":true,"supports_city":true,"lat":18.9027652,"lng":-99.0702403,"googleName":"Apanquetzalco, Yautepec de Zaragoza, Mor., Mexico","googleId":"Eh9BcGFucXVldHphbGNvLCBNb3JlbG9zLCBNw6l4aWNv","types":["sublocality_level_1","sublocality","political"]}
{"key":"1509100","name":"Cerritos","type":"city","country_code":"MX","country_name":"Mexico","region":"Hidalgo","region_id":2517,"supports_region":true,"supports_city":true,"lat":20.5373909,"lng":-99.1840143,"googleName":"Cerritos, Hgo., Mexico","googleId":"ChIJu2LQH2Rf0YURM10Ng46Tl94","types":["locality","political"]}
{"key":"1508953","name":"Celaya","type":"city","country_code":"MX","country_name":"Mexico","region":"Sinaloa","region_id":2529,"supports_region":true,"supports_city":true,"lat":20.5306307,"lng":-100.812044,"googleName":"Sinaloa, Alameda, Celaya, Gto., Mexico","googleId":"EidTaW5hbG9hLCBBbGFtZWRhLCBDZWxheWEsIEd0by4sIE3DqXhpY28","types":["route"]}
{"key":"1508248","name":"Capulhuac","type":"city","country_code":"MX","country_name":"Mexico","region":"State of Mexico","region_id":2519,"supports_region":true,"supports_city":true,"lat":19.1932184,"lng":-99.46760859999999,"googleName":"Capulhuac, State of Mexico, Mexico","googleId":"ChIJzRG4Vf3zzYURVTWQtjAqr70","types":["administrative_area_level_2","political"]}
{"key":"1507343","name":"Calpulalpan","type":"city","country_code":"MX","country_name":"Mexico","region":"Oaxaca","region_id":2524,"supports_region":true,"supports_city":true,"lat":17.3040094,"lng":-96.44701189999999,"googleName":"Capulalpam de Méndez, Oaxaca, Mexico","googleId":"ChIJx660xHTTxoURFUFd7zHvZVE","types":["locality","political"]}
{"key":"1503918","name":"Ameca","type":"city","country_code":"MX","country_name":"Mexico","region":"Zacatecas","region_id":2536,"supports_region":true,"supports_city":true,"lat":22.9544444,"lng":-104.0008333,"googleName":"Ameca, Zac., Mexico","googleId":"ChIJeWIdzvrlnIYRdVPBHHpEOnI","types":["locality","political"]}
{"key":"1509113","name":"Cerritos Del Pilar","type":"city","country_code":"MX","country_name":"Mexico","region":"State of Mexico","region_id":2519,"supports_region":true,"supports_city":true,"lat":19.4452777,"lng":-100.0199999,"googleName":"Cerritos del Pilar, Méx., Mexico","googleId":"ChIJx6UlpreF0oURvoYsIaS8OrA","types":["locality","political"]}
{"key":"1504676","name":"Arteaga","type":"city","country_code":"MX","country_name":"Mexico","region":"Coahuila de Zaragoza","region_id":2511,"supports_region":true,"supports_city":true,"lat":25.4546718,"lng":-100.850791,"googleName":"Arteaga, Coah., Mexico","googleId":"ChIJrbS718APiIYRiYgQKDnLMnM","types":["locality","political"]}
{"key":"1503085","name":"Aguascalientes City","type":"city","country_code":"MX","country_name":"Mexico","region":"Aguascalientes","region_id":2505,"supports_region":true,"supports_city":true,"lat":21.8852562,"lng":-102.2915677,"googleName":"Aguascalientes, Mexico","googleId":"ChIJ-9nkOhTsKYQRIFKcZ3hpAQQ","types":["locality","political"]}
{"key":"1502918","name":"Agua Dulce","type":"city","country_code":"MX","country_name":"Mexico","region":"Tamaulipas","region_id":2532,"supports_region":true,"supports_city":true,"lat":22.2572548,"lng":-97.86788279999999,"googleName":"Agua Dulce, Petrolera, 89110 Tampico, Tamps., Mexico","googleId":"EjNBZ3VhIER1bGNlLCBQZXRyb2xlcmEsIFRhbXBpY28sIFRhbWF1bGlwYXMsIE3DqXhpY28","types":["route"]}
{"key":"1509587","name":"Chapala","type":"city","country_code":"MX","country_name":"Mexico","region":"Sonora","region_id":2530,"supports_region":true,"supports_city":true,"lat":29.107227,"lng":-110.9206718,"googleName":"Chapala, XX Cafe Combate, 83165 Hermosillo, Son., Mexico","googleId":"EjVDaGFwYWxhLCBYWCBDYWZlIENvbWJhdGUsIEhlcm1vc2lsbG8sIFNvbm9yYSwgTcOpeGljbw","types":["route"]}
{"key":"1509109","name":"Cerritos De Aceves","type":"city","country_code":"MX","country_name":"Mexico","region":"Guanajuato","region_id":2515,"supports_region":true,"supports_city":true,"lat":20.3280058,"lng":-101.6175511,"googleName":"Cerritos de Aceves, Gto., Mexico","googleId":"ChIJd8eUlwFqLIQRoEmPP4Ol30s","types":["locality","political"]}
{"key":"1503238","name":"Ahualulco de Mercado","type":"city","country_code":"MX","country_name":"Mexico","region":"Jalisco","region_id":2518,"supports_region":true,"supports_city":true,"lat":20.6998901,"lng":-103.9753155,"googleName":"Ahualulco de Mercado, Jalisco, Mexico","googleId":"ChIJmcg0b4htJoQRl6vNiSdrFz0","types":["locality","political"]}
{"key":"1503198","name":"Ahome","type":"city","country_code":"MX","country_name":"Mexico","region":"Sinaloa","region_id":2529,"supports_region":true,"supports_city":true,"lat":25.7904061,"lng":-108.9917304,"googleName":"Ahome, Sinaloa, Mexico","googleId":"ChIJm2U84GSKuYYR4S2qu_46eKw","types":["administrative_area_level_2","political"]}
{"key":"1508951","name":"Celaya","type":"city","country_code":"MX","country_name":"Mexico","region":"Chiapas","region_id":2509,"supports_region":true,"supports_city":true,"lat":16.7494139,"lng":-92.6446783,"googleName":"Celaya, Tlaxcala, 29210 San Cristóbal de las Casas, Chis., Mexico","googleId":"Ej9DZWxheWEsIFRsYXhjYWxhLCBTYW4gQ3Jpc3TDs2JhbCBkZSBsYXMgQ2FzYXMsIENoaWFwYXMsIE3DqXhpY28","types":["route"]}
{"key":"1502911","name":"Agua Dulce","type":"city","country_code":"MX","country_name":"Mexico","region":"Jalisco","region_id":2518,"supports_region":true,"supports_city":true,"lat":20.6125348,"lng":-103.290731,"googleName":"Agua Dulce, San Pedrito, 45625 San Pedro Tlaquepaque, Jal., Mexico","googleId":"EkBBZ3VhIER1bGNlLCBTYW4gUGVkcml0bywgU2FuIFBlZHJvIFRsYXF1ZXBhcXVlLCBKYWxpc2NvLCBNw6l4aWNv","types":["route"]}
{"key":"1508019","name":"Candelaria","type":"city","country_code":"MX","country_name":"Mexico","region":"Tamaulipas","region_id":2532,"supports_region":true,"supports_city":true,"lat":26.0056768,"lng":-98.0661251,"googleName":"Río Candelaria, Fraccionamiento del Valle, Cd Río Bravo, Tamps., Mexico","googleId":"ElJSw61vIENhbmRlbGFyaWEsIEZyYWNjaW9uYW1pZW50byBkZWwgVmFsbGUsIENpdWRhZCBSw61vIEJyYXZvLCBUYW1hdWxpcGFzLCBNw6l4aWNv","types":["route"]}
{"key":"1508394","name":"Carlos A. Carrillo","type":"city","country_code":"MX","country_name":"Mexico","region":"Veracruz","region_id":2534,"supports_region":true,"supports_city":true,"lat":18.3733464,"lng":-95.758949,"googleName":"Carlos A. Carrillo, Ver., Mexico","googleId":"ChIJZZUEez61w4URtLPkcwcpyJw","types":["locality","political"]}
{"key":"1509580","name":"Chapala","type":"city","country_code":"MX","country_name":"Mexico","region":"Baja California","region_id":2506,"supports_region":true,"supports_city":true,"lat":29.38541,"lng":-114.382251,"googleName":"Chapala, B.C., Mexico","googleId":"ChIJyX8Je4IbLoERvIOnb8HwnS4","types":["locality","political"]}
{"key":"1504722","name":"Asientos","type":"city","country_code":"MX","country_name":"Mexico","region":"Aguascalientes","region_id":2505,"supports_region":true,"supports_city":true,"lat":22.2390573,"lng":-102.0894438,"googleName":"Asientos, Ags., Mexico","googleId":"ChIJNdBqxVEAKoQRqXI-fdOzRWc","types":["administrative_area_level_2","political"]}
{"key":"1509580","name":"Chapala","type":"city","country_code":"MX","country_name":"Mexico","region":"Baja California","region_id":2506,"supports_region":true,"supports_city":true,"lat":29.38541,"lng":-114.382251,"googleName":"Chapala, B.C., Mexico","googleId":"ChIJyX8Je4IbLoERvIOnb8HwnS4","types":["locality","political"]}
{"key":"1509585","name":"Chapala","type":"city","country_code":"MX","country_name":"Mexico","region":"San Luis Potosi","region_id":2528,"supports_region":true,"supports_city":true,"lat":22.153201,"lng":-100.9195346,"googleName":"Chapala, La Foresta, 78438 Soledad de Graciano Sánchez, S.L.P., Mexico","googleId":"EkxDaGFwYWxhLCBMYSBGb3Jlc3RhLCBTb2xlZGFkIGRlIEdyYWNpYW5vIFPDoW5jaGV6LCBTYW4gTHVpcyBQb3Rvc8OtLCBNw6l4aWNv","types":["route"]}
{"key":"1505585","name":"Banderilla","type":"city","country_code":"MX","country_name":"Mexico","region":"Veracruz","region_id":2534,"supports_region":true,"supports_city":true,"lat":19.5939573,"lng":-96.94432429999999,"googleName":"Banderilla, Ver., Mexico","googleId":"ChIJL0g7sbAv24UROq6Fpqa85Ik","types":["locality","political"]}
{"key":"1510017","name":"Chiconcuac","type":"city","country_code":"MX","country_name":"Mexico","region":"Hidalgo","region_id":2517,"supports_region":true,"supports_city":true,"lat":19.55346819999999,"lng":-98.89693799999999,"googleName":"Hidalgo, San Pedro, 56270 Chiconcuac, Méx., Mexico","googleId":"Ei5IaWRhbGdvLCBTYW4gUGVkcm8sIENoaWNvbmN1YWMsIE3DqXguLCBNw6l4aWNv","types":["route"]}
{"key":"1502908","name":"Agua Dulce","type":"city","country_code":"MX","country_name":"Mexico","region":"Baja California","region_id":2506,"supports_region":true,"supports_city":true,"lat":32.4855172,"lng":-117.0475766,"googleName":"Agua Dulce, Loma Bonita Nte., 22604 Tijuana, B.C., Mexico","googleId":"EkBBZ3VhIER1bGNlLCBMb21hIEJvbml0YSBOb3J0ZSwgVGlqdWFuYSwgQmFqYSBDYWxpZm9ybmlhLCBNw6l4aWNv","types":["route"]}
{"key":"1508394","name":"Carlos A. Carrillo","type":"city","country_code":"MX","country_name":"Mexico","region":"Veracruz","region_id":2534,"supports_region":true,"supports_city":true,"lat":18.3733464,"lng":-95.758949,"googleName":"Carlos A. Carrillo, Ver., Mexico","googleId":"ChIJZZUEez61w4URtLPkcwcpyJw","types":["locality","political"]}
